{"timestamp": 1764248440, "flight_mode": "TAKEOFF", "armed": true, "latitude": 55.7557994139855, "longitude": 37.617600536306924, "altitude_relative": 0.9303578940826343, "heading": 0, "speed": 0, "roll": 0.2770151043500838, "pitch": 0.23764009170394518, "battery_voltage": 16.79232952309179, "battery_current": 19.687566835911372, "battery_remaining_percent": 99.95, "gps_fix_type": 6, "gps_satellites_visible": 18}
{"timestamp": 1764248440, "flight_mode": "TAKEOFF", "armed": true, "latitude": 55.75579962559911, "longitude": 37.61760024794235, "altitude_relative": 1.1419582294866548, "heading": 0, "speed": 0.03484239885707576, "roll": 0.1442726468109329, "pitch": 0.152975373586233, "battery_voltage": 16.793441988720176, "battery_current": 19.792843528351973, "battery_remaining_percent": 99.94, "gps_fix_type": 6, "gps_satellites_visible": 18}
{"timestamp": 1764248440, "flight_mode": "TAKEOFF", "armed": true, "latitude": 55.75579983721272, "longitude": 37.617599959577774, "altitude_relative": 1.3535585648906756, "heading": 0, "speed": 0.06968479771415152, "roll": 0.01153018927178201, "pitch": 0.06831065546852083, "battery_voltage": 16.79455445434856, "battery_current": 19.898120220792574, "battery_remaining_percent": 99.93, "gps_fix_type": 6, "gps_satellites_visible": 18}
{"timestamp": 1764248440, "flight_mode": "TAKEOFF", "armed": true, "latitude": 55.75580004882633, "longitude": 37.617599671213206, "altitude_relative": 1.5651589002946962, "heading": 0, "speed": 0.10452719657122729, "roll": -0.12121226826736892, "pitch": -0.016354062649191314, "battery_voltage": 16.795666919976945, "battery_current": 20.00339691323317, "battery_remaining_percent": 99.92, "gps_fix_type": 6, "gps_satellites_visible": 18}
{"timestamp": 1764248440, "flight_mode": "TAKEOFF", "armed": true, "latitude": 55.75580026043994, "longitude": 37.61759938284863, "altitude_relative": 1.776759235698717, "heading": 0, "speed": 0.13936959542830304, "roll": -0.2539547258065198, "pitch": -0.10101878076690352, "battery_voltage": 16.79677938560533, "battery_current": 20.108673605673772, "battery_remaining_percent": 99.91000000000001, "gps_fix_type": 6, "gps_satellites_visible": 18}
{"timestamp": 1764248441, "flight_mode": "TAKEOFF", "armed": true, "latitude": 55.75580047205355, "longitude": 37.617599094484056, "altitude_relative": 1.9883595711027375, "heading": 0, "speed": 0.1742119942853788, "roll": -0.3866971833456707, "pitch": -0.18568349888461566, "battery_voltage": 16.797891851233715, "battery_current": 20.213950298114373, "battery_remaining_percent": 99.9, "gps_fix_type": 6, "gps_satellites_visible": 18}
{"timestamp": 1764248441, "flight_mode": "TAKEOFF", "armed": true, "latitude": 55.75580033196802, "longitude": 37.61759940183373, "altitude_relative": 2.2097722605784096, "heading": 0, "speed": 0.13936959542830304, "roll": -0.27837603512454223, "pitch": -0.04896905119653763, "battery_voltage": 16.79804038922736, "battery_current": 20.1858607649895, "battery_remaining_percent": 99.89, "gps_fix_type": 6, "gps_satellites_visible": 18}
{"timestamp": 1764248441, "flight_mode": "TAKEOFF", "armed": true, "latitude": 55.75580019188248, "longitude": 37.6175997091834, "altitude_relative": 2.4311849500540816, "heading": 0, "speed": 0.10452719657122729, "roll": -0.17005488690341375, "pitch": 0.0877453964915404, "battery_voltage": 16.798188927221005, "battery_current": 20.15777123186463, "battery_remaining_percent": 99.88000000000001, "gps_fix_type": 6, "gps_satellites_visible": 18}
{"timestamp": 1764248441, "flight_mode": "TAKEOFF", "armed": true, "latitude": 55.755800051796946, "longitude": 37.61760001653307, "altitude_relative": 2.6525976395297532, "heading": 0, "speed": 0.06968479771415152, "roll": -0.061733738682285266, "pitch": 0.22445984417961845, "battery_voltage": 16.798337465214654, "battery_current": 20.129681698739756, "battery_remaining_percent": 99.87, "gps_fix_type": 6, "gps_satellites_visible": 18}
{"timestamp": 1764248441, "flight_mode": "TAKEOFF", "armed": true, "latitude": 55.75579991171141, "longitude": 37.61760032388274, "altitude_relative": 2.8740103290054253, "heading": 0, "speed": 0.03484239885707577, "roll": 0.046587409538843216, "pitch": 0.36117429186769645, "battery_voltage": 16.7984860032083, "battery_current": 20.101592165614885, "battery_remaining_percent": 99.86000000000001, "gps_fix_type": 6, "gps_satellites_visible": 18}
{"timestamp": 1764248442, "flight_mode": "TAKEOFF", "armed": true, "latitude": 55.755799771625874, "longitude": 37.61760063123241, "altitude_relative": 3.0954230184810974, "heading": 0, "speed": 0, "roll": 0.1549085577599717, "pitch": 0.4978887395557745, "battery_voltage": 16.798634541201945, "battery_current": 20.073502632490012, "battery_remaining_percent": 99.85000000000001, "gps_fix_type": 6, "gps_satellites_visible": 18}
{"timestamp": 1764248442, "flight_mode": "TAKEOFF", "armed": true, "latitude": 55.75579997078686, "longitude": 37.61760070229449, "altitude_relative": 3.2756902620691464, "heading": 0, "speed": 0.025683313922269024, "roll": 0.06998753056819422, "pitch": 0.31071048078011165, "battery_voltage": 16.79772826145911, "battery_current": 20.11701167525104, "battery_remaining_percent": 99.84, "gps_fix_type": 6, "gps_satellites_visible": 18}
{"timestamp": 1764248442, "flight_mode": "TAKEOFF", "armed": true, "latitude": 55.75580016994785, "longitude": 37.61760077335657, "altitude_relative": 3.4559575056571954, "heading": 0, "speed": 0.05136662784453805, "roll": -0.014933496623583259, "pitch": 0.1235322220044488, "battery_voltage": 16.796821981716274, "battery_current": 20.160520718012066, "battery_remaining_percent": 99.83000000000001, "gps_fix_type": 6, "gps_satellites_visible": 18}
{"timestamp": 1764248442, "flight_mode": "TAKEOFF", "armed": true, "latitude": 55.75580036910883, "longitude": 37.61760084441865, "altitude_relative": 3.636224749245244, "heading": 0, "speed": 0.07704994176680707, "roll": -0.0998545238153607, "pitch": -0.06364603677121394, "battery_voltage": 16.795915701973435, "battery_current": 20.204029760773093, "battery_remaining_percent": 99.82000000000001, "gps_fix_type": 6, "gps_satellites_visible": 18}
{"timestamp": 1764248442, "flight_mode": "TAKEOFF", "armed": true, "latitude": 55.75580056826982, "longitude": 37.61760091548073, "altitude_relative": 3.816491992833293, "heading": 0, "speed": 0.1027332556890761, "roll": -0.18477555100713822, "pitch": -0.2508242955468769, "battery_voltage": 16.7950094222306, "battery_current": 20.24753880353412, "battery_remaining_percent": 99.81000000000002, "gps_fix_type": 6, "gps_satellites_visible": 18}
{"timestamp": 1764248443, "flight_mode": "TAKEOFF", "armed": true, "latitude": 55.755800767430806, "longitude": 37.617600986542804, "altitude_relative": 3.996759236421342, "heading": 0, "speed": 0.12841656961134512, "roll": -0.2696965781989157, "pitch": -0.43800255432253965, "battery_voltage": 16.794103142487764, "battery_current": 20.291047846295147, "battery_remaining_percent": 99.80000000000001, "gps_fix_type": 6, "gps_satellites_visible": 18}
{"timestamp": 1764248443, "flight_mode": "TAKEOFF", "armed": true, "latitude": 55.755800420885336, "longitude": 37.61760098110179, "altitude_relative": 4.21657829288273, "heading": 0, "speed": 0.14033079840000207, "roll": -0.26055614353298445, "pitch": -0.29132639863359555, "battery_voltage": 16.793852910775875, "battery_current": 20.204221075823956, "battery_remaining_percent": 99.79, "gps_fix_type": 6, "gps_satellites_visible": 18}
{"timestamp": 1764248443, "flight_mode": "TAKEOFF", "armed": true, "latitude": 55.75580007433987, "longitude": 37.61760097566077, "altitude_relative": 4.436397349344118, "heading": 0, "speed": 0.15224502718865898, "roll": -0.2514157088670532, "pitch": -0.1446502429446515, "battery_voltage": 16.793602679063987, "battery_current": 20.117394305352768, "battery_remaining_percent": 99.78000000000002, "gps_fix_type": 6, "gps_satellites_visible": 18}
{"timestamp": 1764248443, "flight_mode": "TAKEOFF", "armed": true, "latitude": 55.75579972779439, "longitude": 37.61760097021976, "altitude_relative": 4.656216405805506, "heading": 0, "speed": 0.16415925597731593, "roll": -0.24227527420112202, "pitch": 0.0020259127442924796, "battery_voltage": 16.793352447352095, "battery_current": 20.030567534881577, "battery_remaining_percent": 99.77000000000001, "gps_fix_type": 6, "gps_satellites_visible": 18}
{"timestamp": 1764248443, "flight_mode": "TAKEOFF", "armed": true, "latitude": 55.75579938124892, "longitude": 37.617600964778745, "altitude_relative": 4.876035462266894, "heading": 0, "speed": 0.17607348476597284, "roll": -0.23313483953519082, "pitch": 0.14870206843323663, "battery_voltage": 16.793102215640207, "battery_current": 19.94374076441039, "battery_remaining_percent": 99.76000000000002, "gps_fix_type": 6, "gps_satellites_visible": 18}
{"timestamp": 1764248444, "flight_mode": "TAKEOFF", "armed": true, "latitude": 55.75579903470345, "longitude": 37.61760095933773, "altitude_relative": 5.095854518728282, "heading": 0, "speed": 0.1879877135546298, "roll": -0.2239944048692596, "pitch": 0.2953782241221806, "battery_voltage": 16.79285198392832, "battery_current": 19.856913993939198, "battery_remaining_percent": 99.75000000000001, "gps_fix_type": 6, "gps_satellites_visible": 18}
{"timestamp": 1764248444, "flight_mode": "TAKEOFF", "armed": true, "latitude": 55.75579929830417, "longitude": 37.617600876728986, "altitude_relative": 5.28185822392479, "heading": 0, "speed": 0.15039017084370382, "roll": -0.10257600580602948, "pitch": 0.2640904886910612, "battery_voltage": 16.79256160411959, "battery_current": 19.85002898652291, "battery_remaining_percent": 99.74000000000001, "gps_fix_type": 6, "gps_satellites_visible": 18}
{"timestamp": 1764248444, "flight_mode": "TAKEOFF", "armed": true, "latitude": 55.75579956190489, "longitude": 37.61760079412024, "altitude_relative": 5.4678619291213, "heading": 0, "speed": 0.11279262813277786, "roll": 0.018842393257200635, "pitch": 0.23280275325994187, "battery_voltage": 16.79227122431086, "battery_current": 19.84314397910662, "battery_remaining_percent": 99.73000000000002, "gps_fix_type": 6, "gps_satellites_visible": 18}
{"timestamp": 1764248444, "flight_mode": "TAKEOFF", "armed": true, "latitude": 55.7557998255056, "longitude": 37.61760071151151, "altitude_relative": 5.653865634317809, "heading": 0, "speed": 0.07519508542185192, "roll": 0.1402607923204307, "pitch": 0.20151501782882247, "battery_voltage": 16.79198084450213, "battery_current": 19.836258971690334, "battery_remaining_percent": 99.72000000000001, "gps_fix_type": 6, "gps_satellites_visible": 18}
{"timestamp": 1764248444, "flight_mode": "TAKEOFF", "armed": true, "latitude": 55.755800089106316, "longitude": 37.617600628902764, "altitude_relative": 5.839869339514318, "heading": 0, "speed": 0.03759754271092594, "roll": 0.26167919138366086, "pitch": 0.1702272823977031, "battery_voltage": 16.7916904646934, "battery_current": 19.829373964274044, "battery_remaining_percent": 99.71000000000002, "gps_fix_type": 6, "gps_satellites_visible": 18}
{"timestamp": 1764248445, "flight_mode": "TAKEOFF", "armed": true, "latitude": 55.755800352707034, "longitude": 37.61760054629402, "altitude_relative": 6.025873044710827, "heading": 0, "speed": 0, "roll": 0.38309759044689096, "pitch": 0.13893954696658373, "battery_voltage": 16.79140008488467, "battery_current": 19.822488956857757, "battery_remaining_percent": 99.70000000000002, "gps_fix_type": 6, "gps_satellites_visible": 18}
{"timestamp": 1764248445, "flight_mode": "TAKEOFF", "armed": true, "latitude": 55.755800466963755, "longitude": 37.617600634800326, "altitude_relative": 6.221893874794538, "heading": 0, "speed": 0.0, "roll": 0.2608007168717044, "pitch": 0.09374387115075242, "battery_voltage": 16.792971605123316, "battery_current": 19.9241232381533, "battery_remaining_percent": 99.69000000000001, "gps_fix_type": 6, "gps_satellites_visible": 18}
{"timestamp": 1764248445, "flight_mode": "TAKEOFF", "armed": true, "latitude": 55.75580058122048, "longitude": 37.61760072330662, "altitude_relative": 6.417914704878249, "heading": 0, "speed": 0.0, "roll": 0.13850384329651785, "pitch": 0.04854819533492111, "battery_voltage": 16.794543125361958, "battery_current": 20.02575751944884, "battery_remaining_percent": 99.68000000000002, "gps_fix_type": 6, "gps_satellites_visible": 18}
{"timestamp": 1764248445, "flight_mode": "TAKEOFF", "armed": true, "latitude": 55.755800695477205, "longitude": 37.61760081181293, "altitude_relative": 6.61393553496196, "heading": 0, "speed": 0.0, "roll": 0.016206969721331344, "pitch": 0.003352519519089825, "battery_voltage": 16.796114645600603, "battery_current": 20.12739180074438, "battery_remaining_percent": 99.67000000000002, "gps_fix_type": 6, "gps_satellites_visible": 18}
{"timestamp": 1764248445, "flight_mode": "TAKEOFF", "armed": true, "latitude": 55.75580080973393, "longitude": 37.617600900319225, "altitude_relative": 6.809956365045671, "heading": 0, "speed": 0.0, "roll": -0.10608990385385525, "pitch": -0.04184315629674151, "battery_voltage": 16.797686165839245, "battery_current": 20.229026082039923, "battery_remaining_percent": 99.66000000000003, "gps_fix_type": 6, "gps_satellites_visible": 18}
{"timestamp": 1764248446, "flight_mode": "TAKEOFF", "armed": true, "latitude": 55.75580092399065, "longitude": 37.61760098882553, "altitude_relative": 7.005977195129382, "heading": 0, "speed": 0, "roll": -0.2283867774290418, "pitch": -0.0870388321125728, "battery_voltage": 16.79925768607789, "battery_current": 20.330660363335465, "battery_remaining_percent": 99.65000000000002, "gps_fix_type": 6, "gps_satellites_visible": 18}
{"timestamp": 1764248446, "flight_mode": "TAKEOFF", "armed": true, "latitude": 55.75580069992733, "longitude": 37.61760089940176, "altitude_relative": 7.2199977866344875, "heading": 0, "speed": 0.0, "roll": -0.24321004270060972, "pitch": -0.06239553700772493, "battery_voltage": 16.797927943757344, "battery_current": 20.322233568427052, "battery_remaining_percent": 99.64000000000001, "gps_fix_type": 6, "gps_satellites_visible": 18}
{"timestamp": 1764248446, "flight_mode": "TAKEOFF", "armed": true, "latitude": 55.75580047586401, "longitude": 37.617600809977986, "altitude_relative": 7.434018378139593, "heading": 0, "speed": 0.0, "roll": -0.25803330797217766, "pitch": -0.03775224190287707, "battery_voltage": 16.796598201436797, "battery_current": 20.31380677351864, "battery_remaining_percent": 99.63000000000002, "gps_fix_type": 6, "gps_satellites_visible": 18}
{"timestamp": 1764248446, "flight_mode": "TAKEOFF", "armed": true, "latitude": 55.75580025180069, "longitude": 37.61760072055422, "altitude_relative": 7.6480389696447, "heading": 0, "speed": 0.0, "roll": -0.2728565732437456, "pitch": -0.013108946798029208, "battery_voltage": 16.795268459116247, "battery_current": 20.30537997861023, "battery_remaining_percent": 99.62000000000002, "gps_fix_type": 6, "gps_satellites_visible": 18}
{"timestamp": 1764248446, "flight_mode": "TAKEOFF", "armed": true, "latitude": 55.75580002773737, "longitude": 37.61760063113045, "altitude_relative": 7.862059561149806, "heading": 0, "speed": 0.0, "roll": -0.28767983851531354, "pitch": 0.011534348306818654, "battery_voltage": 16.7939387167957, "battery_current": 20.296953183701817, "battery_remaining_percent": 99.61000000000003, "gps_fix_type": 6, "gps_satellites_visible": 18}
{"timestamp": 1764248447, "flight_mode": "TAKEOFF", "armed": true, "latitude": 55.75579980367405, "longitude": 37.61760054170668, "altitude_relative": 8.076080152654912, "heading": 0, "speed": 0, "roll": -0.3025031037868815, "pitch": 0.036177643411666516, "battery_voltage": 16.792608974475154, "battery_current": 20.288526388793404, "battery_remaining_percent": 99.60000000000002, "gps_fix_type": 6, "gps_satellites_visible": 18}
{"timestamp": 1764248447, "flight_mode": "TAKEOFF", "armed": true, "latitude": 55.75579985736243, "longitude": 37.61760030822529, "altitude_relative": 8.254657084051082, "heading": 0, "speed": 0.004004706430600369, "roll": -0.3297470909654953, "pitch": 0.1133016500363226, "battery_voltage": 16.793385597126058, "battery_current": 20.213526274988677, "battery_remaining_percent": 99.59000000000002, "gps_fix_type": 6, "gps_satellites_visible": 18}
{"timestamp": 1764248447, "flight_mode": "TAKEOFF", "armed": true, "latitude": 55.755799911050815, "longitude": 37.617600074743905, "altitude_relative": 8.433234015447251, "heading": 0, "speed": 0.008009412861200738, "roll": -0.35699107814410913, "pitch": 0.1904256566609787, "battery_voltage": 16.79416221977696, "battery_current": 20.13852616118395, "battery_remaining_percent": 99.58000000000003, "gps_fix_type": 6, "gps_satellites_visible": 18}
{"timestamp": 1764248447, "flight_mode": "TAKEOFF", "armed": true, "latitude": 55.7557999647392, "longitude": 37.617599841262525, "altitude_relative": 8.611810946843422, "heading": 0, "speed": 0.012014119291801106, "roll": -0.3842350653227229, "pitch": 0.2675496632856348, "battery_voltage": 16.794938842427868, "battery_current": 20.06352604737922, "battery_remaining_percent": 99.57000000000002, "gps_fix_type": 6, "gps_satellites_visible": 18}
{"timestamp": 1764248447, "flight_mode": "TAKEOFF", "armed": true, "latitude": 55.75580001842758, "longitude": 37.61759960778114, "altitude_relative": 8.79038787823959, "heading": 0, "speed": 0.016018825722401476, "roll": -0.4114790525013367, "pitch": 0.34467366991029086, "battery_voltage": 16.79571546507877, "battery_current": 19.988525933574493, "battery_remaining_percent": 99.56000000000003, "gps_fix_type": 6, "gps_satellites_visible": 18}
{"timestamp": 1764248448, "flight_mode": "TAKEOFF", "armed": true, "latitude": 55.75580007211596, "longitude": 37.61759937429975, "altitude_relative": 8.96896480963576, "heading": 0, "speed": 0.020023532153001844, "roll": -0.4387230396799505, "pitch": 0.42179767653494693, "battery_voltage": 16.796492087729675, "battery_current": 19.913525819769767, "battery_remaining_percent": 99.55000000000003, "gps_fix_type": 6, "gps_satellites_visible": 18}
{"timestamp": 1764248448, "flight_mode": "TAKEOFF", "armed": true, "latitude": 55.75580009409107, "longitude": 37.61759951382796, "altitude_relative": 9.190875536623142, "heading": 0, "speed": 0.016018825722401476, "roll": -0.3636476062263809, "pitch": 0.24809233370832395, "battery_voltage": 16.795464746193822, "battery_current": 19.840425288419805, "battery_remaining_percent": 99.54000000000002, "gps_fix_type": 6, "gps_satellites_visible": 18}
{"timestamp": 1764248448, "flight_mode": "TAKEOFF", "armed": true, "latitude": 55.75580011606618, "longitude": 37.61759965335617, "altitude_relative": 9.412786263610526, "heading": 0, "speed": 0.012014119291801106, "roll": -0.28857217277281133, "pitch": 0.07438699088170098, "battery_voltage": 16.79443740465797, "battery_current": 19.767324757069844, "battery_remaining_percent": 99.53000000000003, "gps_fix_type": 6, "gps_satellites_visible": 18}
{"timestamp": 1764248448, "flight_mode": "TAKEOFF", "armed": true, "latitude": 55.7558001380413, "longitude": 37.617599792884384, "altitude_relative": 9.634696990597908, "heading": 0, "speed": 0.008009412861200738, "roll": -0.21349673931924174, "pitch": -0.099318351944922, "battery_voltage": 16.79341006312212, "battery_current": 19.69422422571988, "battery_remaining_percent": 99.52000000000002, "gps_fix_type": 6, "gps_satellites_visible": 18}
{"timestamp": 1764248448, "flight_mode": "TAKEOFF", "armed": true, "latitude": 55.75580016001641, "longitude": 37.617599932412595, "altitude_relative": 9.856607717585291, "heading": 0, "speed": 0.004004706430600368, "roll": -0.13842130586567214, "pitch": -0.273023694771545, "battery_voltage": 16.792382721586268, "battery_current": 19.621123694369917, "battery_remaining_percent": 99.51000000000003, "gps_fix_type": 6, "gps_satellites_visible": 18}
{"timestamp": 1764248449, "flight_mode": "TAKEOFF", "armed": true, "latitude": 55.755800181991525, "longitude": 37.61760007194081, "altitude_relative": 10.078518444572673, "heading": 0, "speed": 0, "roll": -0.06334587241210254, "pitch": -0.44672903759816796, "battery_voltage": 16.791355380050415, "battery_current": 19.548023163019955, "battery_remaining_percent": 99.50000000000003, "gps_fix_type": 6, "gps_satellites_visible": 18}
{"timestamp": 1764248449, "flight_mode": "TAKEOFF", "armed": true, "latitude": 55.755800219763046, "longitude": 37.617600031229884, "altitude_relative": 10.258192400246497, "heading": 0, "speed": 0.019962012240707285, "roll": 0.04570045087092155, "pitch": -0.2810027912012446, "battery_voltage": 16.79165552121651, "battery_current": 19.58073152798749, "battery_remaining_percent": 99.49000000000002, "gps_fix_type": 6, "gps_satellites_visible": 18}
{"timestamp": 1764248449, "flight_mode": "TAKEOFF", "armed": true, "latitude": 55.75580025753457, "longitude": 37.61759999051896, "altitude_relative": 10.43786635592032, "heading": 0, "speed": 0.03992402448141457, "roll": 0.15474677415394564, "pitch": -0.1152765448043212, "battery_voltage": 16.791955662382602, "battery_current": 19.61343989295502, "battery_remaining_percent": 99.48000000000003, "gps_fix_type": 6, "gps_satellites_visible": 18}
{"timestamp": 1764248449, "flight_mode": "TAKEOFF", "armed": true, "latitude": 55.75580029530609, "longitude": 37.61759994980803, "altitude_relative": 10.617540311594142, "heading": 0, "speed": 0.059886036722121845, "roll": 0.2637930974369697, "pitch": 0.05044970159260215, "battery_voltage": 16.79225580354869, "battery_current": 19.64614825792255, "battery_remaining_percent": 99.47000000000003, "gps_fix_type": 6, "gps_satellites_visible": 18}
{"timestamp": 1764248449, "flight_mode": "TAKEOFF", "armed": true, "latitude": 55.75580033307761, "longitude": 37.61759990909711, "altitude_relative": 10.797214267267966, "heading": 0, "speed": 0.07984804896282914, "roll": 0.3728394207199938, "pitch": 0.21617594798952555, "battery_voltage": 16.792555944714785, "battery_current": 19.678856622890084, "battery_remaining_percent": 99.46000000000004, "gps_fix_type": 6, "gps_satellites_visible": 18}
{"timestamp": 1764248450, "flight_mode": "TAKEOFF", "armed": true, "latitude": 55.75580037084913, "longitude": 37.617599868386186, "altitude_relative": 10.97688822294179, "heading": 0, "speed": 0.09981006120353642, "roll": 0.48188574400301787, "pitch": 0.3819021943864489, "battery_voltage": 16.792856085880878, "battery_current": 19.711564987857617, "battery_remaining_percent": 99.45000000000003, "gps_fix_type": 6, "gps_satellites_visible": 18}
{"timestamp": 1764248450, "flight_mode": "TAKEOFF", "armed": true, "latitude": 55.75580044506397, "longitude": 37.61759974696892, "altitude_relative": 11.172966014499746, "heading": 0, "speed": 0.07984804896282913, "roll": 0.449688493102827, "pitch": 0.2553866017501929, "battery_voltage": 16.793171306972873, "battery_current": 19.827375884882898, "battery_remaining_percent": 99.44000000000003, "gps_fix_type": 6, "gps_satellites_visible": 18}
{"timestamp": 1764248450, "flight_mode": "TAKEOFF", "armed": true, "latitude": 55.75580051927881, "longitude": 37.617599625551655, "altitude_relative": 11.369043806057702, "heading": 0, "speed": 0.059886036722121845, "roll": 0.41749124220263606, "pitch": 0.12887100911393684, "battery_voltage": 16.79348652806487, "battery_current": 19.943186781908178, "battery_remaining_percent": 99.43000000000004, "gps_fix_type": 6, "gps_satellites_visible": 18}
{"timestamp": 1764248450, "flight_mode": "TAKEOFF", "armed": true, "latitude": 55.75580059349364, "longitude": 37.6175995041344, "altitude_relative": 11.565121597615658, "heading": 0, "speed": 0.03992402448141457, "roll": 0.3852939913024452, "pitch": 0.0023554164776808384, "battery_voltage": 16.793801749156867, "battery_current": 20.05899767893346, "battery_remaining_percent": 99.42000000000003, "gps_fix_type": 6, "gps_satellites_visible": 18}
{"timestamp": 1764248450, "flight_mode": "TAKEOFF", "armed": true, "latitude": 55.75580066770848, "longitude": 37.61759938271713, "altitude_relative": 11.761199389173614, "heading": 0, "speed": 0.019962012240707275, "roll": 0.35309674040225425, "pitch": -0.12416017615857522, "battery_voltage": 16.794116970248865, "battery_current": 20.17480857595874, "battery_remaining_percent": 99.41000000000004, "gps_fix_type": 6, "gps_satellites_visible": 18}
{"timestamp": 1764248451, "flight_mode": "TAKEOFF", "armed": true, "latitude": 55.755800741923316, "longitude": 37.617599261299866, "altitude_relative": 11.95727718073157, "heading": 0, "speed": 0, "roll": 0.3208994895020634, "pitch": -0.2506757687948312, "battery_voltage": 16.79443219134086, "battery_current": 20.29061947298402, "battery_remaining_percent": 99.40000000000003, "gps_fix_type": 6, "gps_satellites_visible": 18}
{"timestamp": 1764248451, "flight_mode": "TAKEOFF", "armed": true, "latitude": 55.755800410010465, "longitude": 37.61759952728364, "altitude_relative": 12.167352258506316, "heading": 0, "speed": 0.01319618662658828, "roll": 0.23886463741393102, "pitch": -0.17522147334939014, "battery_voltage": 16.795119703212055, "battery_current": 20.220370112862895, "battery_remaining_percent": 99.39000000000003, "gps_fix_type": 6, "gps_satellites_visible": 18}
{"timestamp": 1764248451, "flight_mode": "TAKEOFF", "armed": true, "latitude": 55.75580007809761, "longitude": 37.61759979326741, "altitude_relative": 12.377427336281063, "heading": 0, "speed": 0.02639237325317656, "roll": 0.15682978532579867, "pitch": -0.09976717790394904, "battery_voltage": 16.79580721508325, "battery_current": 20.15012075274177, "battery_remaining_percent": 99.38000000000004, "gps_fix_type": 6, "gps_satellites_visible": 18}
{"timestamp": 1764248451, "flight_mode": "TAKEOFF", "armed": true, "latitude": 55.755799746184756, "longitude": 37.617600059251174, "altitude_relative": 12.587502414055807, "heading": 0, "speed": 0.03958855987976484, "roll": 0.07479493323766634, "pitch": -0.02431288245850796, "battery_voltage": 16.796494726954446, "battery_current": 20.07987139262065, "battery_remaining_percent": 99.37000000000003, "gps_fix_type": 6, "gps_satellites_visible": 18}
{"timestamp": 1764248451, "flight_mode": "TAKEOFF", "armed": true, "latitude": 55.7557994142719, "longitude": 37.617600325234946, "altitude_relative": 12.797577491830554, "heading": 0, "speed": 0.05278474650635312, "roll": -0.007239918850466043, "pitch": 0.051141412986933144, "battery_voltage": 16.79718223882564, "battery_current": 20.009622032499525, "battery_remaining_percent": 99.36000000000004, "gps_fix_type": 6, "gps_satellites_visible": 18}
{"timestamp": 1764248452, "flight_mode": "TAKEOFF", "armed": true, "latitude": 55.75579908235905, "longitude": 37.61760059121872, "altitude_relative": 13.0076525696053, "heading": 0, "speed": 0.0659809331329414, "roll": -0.08927477093859837, "pitch": 0.12659570843237422, "battery_voltage": 16.797869750696837, "battery_current": 19.9393726723784, "battery_remaining_percent": 99.35000000000004, "gps_fix_type": 6, "gps_satellites_visible": 18}
{"timestamp": 1764248452, "flight_mode": "TAKEOFF", "armed": true, "latitude": 55.75579912388159, "longitude": 37.617600342102016, "altitude_relative": 13.203114265614305, "heading": 0, "speed": 0.08291037615927767, "roll": -0.07317140223798106, "pitch": 0.10399455073772094, "battery_voltage": 16.79796771564623, "battery_current": 20.046773100863362, "battery_remaining_percent": 99.34000000000003, "gps_fix_type": 6, "gps_satellites_visible": 18}
{"timestamp": 1764248452, "flight_mode": "TAKEOFF", "armed": true, "latitude": 55.75579916540412, "longitude": 37.617600092985306, "altitude_relative": 13.39857596162331, "heading": 0, "speed": 0.09983981918561394, "roll": -0.05706803353736376, "pitch": 0.08139339304306767, "battery_voltage": 16.798065680595624, "battery_current": 20.15417352934832, "battery_remaining_percent": 99.33000000000004, "gps_fix_type": 6, "gps_satellites_visible": 18}
{"timestamp": 1764248452, "flight_mode": "TAKEOFF", "armed": true, "latitude": 55.75579920692666, "longitude": 37.617599843868604, "altitude_relative": 13.594037657632313, "heading": 0, "speed": 0.11676926221195019, "roll": -0.040964664836746455, "pitch": 0.05879223534841441, "battery_voltage": 16.798163645545014, "battery_current": 20.26157395783328, "battery_remaining_percent": 99.32000000000004, "gps_fix_type": 6, "gps_satellites_visible": 18}
{"timestamp": 1764248452, "flight_mode": "TAKEOFF", "armed": true, "latitude": 55.75579924844919, "longitude": 37.617599594751894, "altitude_relative": 13.789499353641318, "heading": 0, "speed": 0.13369870523828647, "roll": -0.024861296136129155, "pitch": 0.03619107765376112, "battery_voltage": 16.798261610494407, "battery_current": 20.36897438631824, "battery_remaining_percent": 99.31000000000004, "gps_fix_type": 6, "gps_satellites_visible": 18}
{"timestamp": 1764248453, "flight_mode": "TAKEOFF", "armed": true, "latitude": 55.75579928997173, "longitude": 37.61759934563519, "altitude_relative": 13.984961049650323, "heading": 0, "speed": 0.15062814826462273, "roll": -0.008757927435511847, "pitch": 0.013589919959107855, "battery_voltage": 16.7983595754438, "battery_current": 20.4763748148032, "battery_remaining_percent": 99.30000000000004, "gps_fix_type": 6, "gps_satellites_visible": 18}
{"timestamp": 1764248453, "flight_mode": "TAKEOFF", "armed": true, "latitude": 55.75579945526532, "longitude": 37.617599388239725, "altitude_relative": 14.177952698502006, "heading": 0, "speed": 0.1226069465246501, "roll": 0.01506634907660358, "pitch": 0.05228133092206708, "battery_voltage": 16.796937370492426, "battery_current": 20.418957731126348, "battery_remaining_percent": 99.29000000000003, "gps_fix_type": 6, "gps_satellites_visible": 18}
{"timestamp": 1764248453, "flight_mode": "TAKEOFF", "armed": true, "latitude": 55.755799620558896, "longitude": 37.61759943084426, "altitude_relative": 14.370944347353687, "heading": 0, "speed": 0.09458574478467746, "roll": 0.03889062558871901, "pitch": 0.09097274188502631, "battery_voltage": 16.795515165541048, "battery_current": 20.361540647449495, "battery_remaining_percent": 99.28000000000004, "gps_fix_type": 6, "gps_satellites_visible": 18}
{"timestamp": 1764248453, "flight_mode": "TAKEOFF", "armed": true, "latitude": 55.75579978585248, "longitude": 37.6175994734488, "altitude_relative": 14.56393599620537, "heading": 0, "speed": 0.06656454304470484, "roll": 0.06271490210083443, "pitch": 0.12966415284798555, "battery_voltage": 16.794092960589673, "battery_current": 20.304123563772638, "battery_remaining_percent": 99.27000000000004, "gps_fix_type": 6, "gps_satellites_visible": 18}
{"timestamp": 1764248453, "flight_mode": "TAKEOFF", "armed": true, "latitude": 55.75579995114606, "longitude": 37.61759951605333, "altitude_relative": 14.75692764505705, "heading": 0, "speed": 0.03854334130473221, "roll": 0.08653917861294987, "pitch": 0.16835556381094477, "battery_voltage": 16.792670755638294, "battery_current": 20.246706480095785, "battery_remaining_percent": 99.26000000000005, "gps_fix_type": 6, "gps_satellites_visible": 18}
{"timestamp": 1764248454, "flight_mode": "TAKEOFF", "armed": true, "latitude": 55.755800116439644, "longitude": 37.617599558657865, "altitude_relative": 14.949919293908733, "heading": 0, "speed": 0.010522139564759586, "roll": 0.11036345512506529, "pitch": 0.207046974773904, "battery_voltage": 16.79124855068692, "battery_current": 20.189289396418932, "battery_remaining_percent": 99.25000000000004, "gps_fix_type": 6, "gps_satellites_visible": 18}
{"timestamp": 1764248454, "flight_mode": "TAKEOFF", "armed": true, "latitude": 55.75579995135083, "longitude": 37.61759960959536, "altitude_relative": 15.14329437030277, "heading": 0, "speed": 0.042138420127172484, "roll": 0.11579339807883515, "pitch": 0.06841787736636487, "battery_voltage": 16.79176590304165, "battery_current": 20.162134918518394, "battery_remaining_percent": 99.24000000000004, "gps_fix_type": 6, "gps_satellites_visible": 18}
{"timestamp": 1764248454, "flight_mode": "TAKEOFF", "armed": true, "latitude": 55.75579978626202, "longitude": 37.617599660532846, "altitude_relative": 15.33666944669681, "heading": 0, "speed": 0.07375470068958538, "roll": 0.12122334103260501, "pitch": -0.07021122004117425, "battery_voltage": 16.79228325539638, "battery_current": 20.134980440617852, "battery_remaining_percent": 99.23000000000005, "gps_fix_type": 6, "gps_satellites_visible": 18}
{"timestamp": 1764248454, "flight_mode": "TAKEOFF", "armed": true, "latitude": 55.75579962117321, "longitude": 37.61759971147034, "altitude_relative": 15.530044523090847, "heading": 0, "speed": 0.10537098125199827, "roll": 0.12665328398637488, "pitch": -0.2088403174487133, "battery_voltage": 16.79280060775111, "battery_current": 20.107825962717314, "battery_remaining_percent": 99.22000000000004, "gps_fix_type": 6, "gps_satellites_visible": 18}
{"timestamp": 1764248454, "flight_mode": "TAKEOFF", "armed": true, "latitude": 55.7557994560844, "longitude": 37.61759976240783, "altitude_relative": 15.723419599484886, "heading": 0, "speed": 0.13698726181441118, "roll": 0.13208322694014474, "pitch": -0.3474694148562525, "battery_voltage": 16.793317960105842, "battery_current": 20.080671484816772, "battery_remaining_percent": 99.21000000000005, "gps_fix_type": 6, "gps_satellites_visible": 18}
{"timestamp": 1764248455, "flight_mode": "TAKEOFF", "armed": true, "latitude": 55.75579929099558, "longitude": 37.61759981334532, "altitude_relative": 15.916794675878924, "heading": 0, "speed": 0.16860354237682407, "roll": 0.1375131698939146, "pitch": -0.4860985122637915, "battery_voltage": 16.793835312460573, "battery_current": 20.053517006916234, "battery_remaining_percent": 99.20000000000005, "gps_fix_type": 6, "gps_satellites_visible": 18}
{"timestamp": 1764248455, "flight_mode": "TAKEOFF", "armed": true, "latitude": 55.75579924252198, "longitude": 37.61759975442085, "altitude_relative": 16.146439033130157, "heading": 0, "speed": 0.16271013728319467, "roll": 0.20622170615402763, "pitch": -0.41293527159540994, "battery_voltage": 16.793932268827273, "battery_current": 19.995870906332037, "battery_remaining_percent": 99.19000000000004, "gps_fix_type": 6, "gps_satellites_visible": 18}
{"timestamp": 1764248455, "flight_mode": "TAKEOFF", "armed": true, "latitude": 55.755799194048386, "longitude": 37.617599695496374, "altitude_relative": 16.37608339038139, "heading": 0, "speed": 0.15681673218956524, "roll": 0.27493024241414066, "pitch": -0.33977203092702835, "battery_voltage": 16.794029225193974, "battery_current": 19.938224805747844, "battery_remaining_percent": 99.18000000000005, "gps_fix_type": 6, "gps_satellites_visible": 18}
{"timestamp": 1764248455, "flight_mode": "TAKEOFF", "armed": true, "latitude": 55.755799145574784, "longitude": 37.6175996365719, "altitude_relative": 16.60572774763262, "heading": 0, "speed": 0.15092332709593584, "roll": 0.34363877867425374, "pitch": -0.2666087902586468, "battery_voltage": 16.79412618156067, "battery_current": 19.880578705163646, "battery_remaining_percent": 99.17000000000004, "gps_fix_type": 6, "gps_satellites_visible": 18}
{"timestamp": 1764248455, "flight_mode": "TAKEOFF", "armed": true, "latitude": 55.75579909710119, "longitude": 37.617599577647425, "altitude_relative": 16.835372104883852, "heading": 0, "speed": 0.1450299220023064, "roll": 0.41234731493436677, "pitch": -0.19344554959026522, "battery_voltage": 16.79422313792737, "battery_current": 19.822932604579453, "battery_remaining_percent": 99.16000000000005, "gps_fix_type": 6, "gps_satellites_visible": 18}
{"timestamp": 1764248456, "flight_mode": "TAKEOFF", "armed": true, "latitude": 55.75579904862759, "longitude": 37.617599518722955, "altitude_relative": 17.065016462135084, "heading": 0, "speed": 0.139136516908677, "roll": 0.4810558511944798, "pitch": -0.12028230892188363, "battery_voltage": 16.794320094294072, "battery_current": 19.765286503995256, "battery_remaining_percent": 99.15000000000005, "gps_fix_type": 6, "gps_satellites_visible": 18}
{"timestamp": 1764248456, "flight_mode": "TAKEOFF", "armed": true, "latitude": 55.755799392772396, "longitude": 37.617599586285785, "altitude_relative": 17.257550888579757, "heading": 0, "speed": 0.11420791251332693, "roll": 0.478300186546336, "pitch": -0.1171504719148847, "battery_voltage": 16.79438262538802, "battery_current": 19.758623962990526, "battery_remaining_percent": 99.14000000000004, "gps_fix_type": 6, "gps_satellites_visible": 18}
{"timestamp": 1764248456, "flight_mode": "TAKEOFF", "armed": true, "latitude": 55.755799736917204, "longitude": 37.61759965384861, "altitude_relative": 17.45008531502443, "heading": 0, "speed": 0.08927930811797684, "roll": 0.47554452189819213, "pitch": -0.11401863490788577, "battery_voltage": 16.79444515648197, "battery_current": 19.751961421985797, "battery_remaining_percent": 99.13000000000005, "gps_fix_type": 6, "gps_satellites_visible": 18}
{"timestamp": 1764248456, "flight_mode": "TAKEOFF", "armed": true, "latitude": 55.755800081062006, "longitude": 37.61759972141144, "altitude_relative": 17.6426197414691, "heading": 0, "speed": 0.06435070372262676, "roll": 0.4727888572500483, "pitch": -0.11088679790088685, "battery_voltage": 16.79450768757592, "battery_current": 19.745298880981064, "battery_remaining_percent": 99.12000000000005, "gps_fix_type": 6, "gps_satellites_visible": 18}
{"timestamp": 1764248456, "flight_mode": "TAKEOFF", "armed": true, "latitude": 55.755800425206814, "longitude": 37.61759978897426, "altitude_relative": 17.835154167913775, "heading": 0, "speed": 0.039422099327276666, "roll": 0.47003319260190446, "pitch": -0.10775496089388792, "battery_voltage": 16.794570218669868, "battery_current": 19.738636339976335, "battery_remaining_percent": 99.11000000000006, "gps_fix_type": 6, "gps_satellites_visible": 18}
{"timestamp": 1764248457, "flight_mode": "TAKEOFF", "armed": true, "latitude": 55.75580076935162, "longitude": 37.61759985653709, "altitude_relative": 18.027688594358448, "heading": 0, "speed": 0.014493494931926587, "roll": 0.46727752795376065, "pitch": -0.10462312388688899, "battery_voltage": 16.794632749763817, "battery_current": 19.731973798971605, "battery_remaining_percent": 99.10000000000005, "gps_fix_type": 6, "gps_satellites_visible": 18}
{"timestamp": 1764248457, "flight_mode": "TAKEOFF", "armed": true, "latitude": 55.755800597968815, "longitude": 37.61760004878134, "altitude_relative": 18.20941478739115, "heading": 0, "speed": 0.027802250249972328, "roll": 0.3633994485370406, "pitch": -0.17092013393443245, "battery_voltage": 16.794506036722705, "battery_current": 19.854174038570275, "battery_remaining_percent": 99.09000000000005, "gps_fix_type": 6, "gps_satellites_visible": 18}
{"timestamp": 1764248457, "flight_mode": "TAKEOFF", "armed": true, "latitude": 55.755800426586, "longitude": 37.617600241025585, "altitude_relative": 18.39114098042385, "heading": 0, "speed": 0.04111100556801807, "roll": 0.25952136912032053, "pitch": -0.23721714398197594, "battery_voltage": 16.794379323681596, "battery_current": 19.976374278168944, "battery_remaining_percent": 99.08000000000006, "gps_fix_type": 6, "gps_satellites_visible": 18}
{"timestamp": 1764248457, "flight_mode": "TAKEOFF", "armed": true, "latitude": 55.75580025520319, "longitude": 37.617600433269835, "altitude_relative": 18.57286717345655, "heading": 0, "speed": 0.0544197608860638, "roll": 0.15564328970360053, "pitch": -0.3035141540295194, "battery_voltage": 16.794252610640484, "battery_current": 20.098574517767613, "battery_remaining_percent": 99.07000000000005, "gps_fix_type": 6, "gps_satellites_visible": 18}
{"timestamp": 1764248457, "flight_mode": "TAKEOFF", "armed": true, "latitude": 55.755800083820375, "longitude": 37.61760062551408, "altitude_relative": 18.75459336648925, "heading": 0, "speed": 0.06772851620410955, "roll": 0.051765210286880414, "pitch": -0.3698111640770629, "battery_voltage": 16.794125897599375, "battery_current": 20.220774757366282, "battery_remaining_percent": 99.06000000000006, "gps_fix_type": 6, "gps_satellites_visible": 18}
{"timestamp": 1764248458, "flight_mode": "TAKEOFF", "armed": true, "latitude": 55.75579991243757, "longitude": 37.61760081775833, "altitude_relative": 18.93631955952195, "heading": 0, "speed": 0.08103727152215529, "roll": -0.05211286912983959, "pitch": -0.43610817412460634, "battery_voltage": 16.793999184558263, "battery_current": 20.34297499696495, "battery_remaining_percent": 99.05000000000005, "gps_fix_type": 6, "gps_satellites_visible": 18}
{"timestamp": 1764248458, "flight_mode": "TAKEOFF", "armed": true, "latitude": 55.75579981626947, "longitude": 37.61760060971288, "altitude_relative": 19.1434760668424, "heading": 0, "speed": 0.10233344246262982, "roll": -0.07346722017265081, "pitch": -0.41841936620085407, "battery_voltage": 16.79350666415383, "battery_current": 20.319416784899392, "battery_remaining_percent": 99.04000000000005, "gps_fix_type": 6, "gps_satellites_visible": 18}
{"timestamp": 1764248458, "flight_mode": "TAKEOFF", "armed": true, "latitude": 55.75579972010138, "longitude": 37.61760040166743, "altitude_relative": 19.350632574162848, "heading": 0, "speed": 0.12362961340310435, "roll": -0.09482157121546204, "pitch": -0.40073055827710174, "battery_voltage": 16.7930141437494, "battery_current": 20.295858572833833, "battery_remaining_percent": 99.03000000000006, "gps_fix_type": 6, "gps_satellites_visible": 18}
{"timestamp": 1764248458, "flight_mode": "TAKEOFF", "armed": true, "latitude": 55.75579962393329, "longitude": 37.61760019362199, "altitude_relative": 19.5577890814833, "heading": 0, "speed": 0.1449257843435789, "roll": -0.11617592225827326, "pitch": -0.3830417503533495, "battery_voltage": 16.79252162334497, "battery_current": 20.27230036076827, "battery_remaining_percent": 99.02000000000005, "gps_fix_type": 6, "gps_satellites_visible": 18}
{"timestamp": 1764248458, "flight_mode": "TAKEOFF", "armed": true, "latitude": 55.7557995277652, "longitude": 37.61759998557654, "altitude_relative": 19.764945588803748, "heading": 0, "speed": 0.16622195528405342, "roll": -0.1375302733010845, "pitch": -0.36535294242959715, "battery_voltage": 16.79202910294054, "battery_current": 20.24874214870271, "battery_remaining_percent": 99.01000000000006, "gps_fix_type": 6, "gps_satellites_visible": 18}
{"timestamp": 1764248459, "flight_mode": "TAKEOFF", "armed": true, "latitude": 55.755799431597104, "longitude": 37.61759977753109, "altitude_relative": 19.972102096124196, "heading": 0, "speed": 0.18751812622452796, "roll": -0.15888462434389572, "pitch": -0.3476641345058449, "battery_voltage": 16.791536582536107, "battery_current": 20.22518393663715, "battery_remaining_percent": 99.00000000000006, "gps_fix_type": 6, "gps_satellites_visible": 18}
{"timestamp": 1764248459, "flight_mode": "TAKEOFF", "armed": true, "latitude": 55.755817523057296, "longitude": 37.617599623259515, "altitude_relative": 19.985746388778885, "heading": 0, "speed": 2.1322673973248443, "roll": -0.061335373370655394, "pitch": -0.2591790015486183, "battery_voltage": 16.79290790439375, "battery_current": 19.247543604333032, "battery_remaining_percent": 98.99400000000006, "gps_fix_type": 6, "gps_satellites_visible": 18}
{"timestamp": 1764248459, "flight_mode": "TAKEOFF", "armed": true, "latitude": 55.755835614517494, "longitude": 37.61759946898794, "altitude_relative": 19.999390681433574, "heading": 0, "speed": 4.077016668425161, "roll": 0.03621387760258493, "pitch": -0.17069386859139168, "battery_voltage": 16.794279226251398, "battery_current": 18.26990327202891, "battery_remaining_percent": 98.98800000000006, "gps_fix_type": 6, "gps_satellites_visible": 18}
{"timestamp": 1764248459, "flight_mode": "TAKEOFF", "armed": true, "latitude": 55.755853705977685, "longitude": 37.61759931471637, "altitude_relative": 20.013034974088264, "heading": 0, "speed": 6.021765939525476, "roll": 0.13376312857582523, "pitch": -0.08220873563416509, "battery_voltage": 16.79565054810904, "battery_current": 17.292262939724786, "battery_remaining_percent": 98.98200000000006, "gps_fix_type": 6, "gps_satellites_visible": 18}
{"timestamp": 1764248459, "flight_mode": "TAKEOFF", "armed": true, "latitude": 55.755871797437884, "longitude": 37.6175991604448, "altitude_relative": 20.026679266742953, "heading": 0, "speed": 7.9665152106257935, "roll": 0.23131237954906558, "pitch": 0.006276397323061511, "battery_voltage": 16.797021869966688, "battery_current": 16.314622607420667, "battery_remaining_percent": 98.97600000000006, "gps_fix_type": 6, "gps_satellites_visible": 18}
{"timestamp": 1764248460, "flight_mode": "MISSION", "armed": true, "latitude": 55.755889888898075, "longitude": 37.61759900617322, "altitude_relative": 20.040323559397642, "heading": 319.62792363421534, "speed": 9.91126448172611, "roll": 0.3288616305223059, "pitch": 0.09476153028028811, "battery_voltage": 16.79839319182433, "battery_current": 15.336982275116545, "battery_remaining_percent": 98.97000000000006, "gps_fix_type": 6, "gps_satellites_visible": 18}
{"timestamp": 1764248460, "flight_mode": "MISSION", "armed": true, "latitude": 55.75590614986058, "longitude": 37.61759905284221, "altitude_relative": 20.024951051035302, "heading": 319.62792363421534, "speed": 9.958480819760382, "roll": 0.2457782237183337, "pitch": 0.07737926001297239, "battery_voltage": 16.796824752156017, "battery_current": 15.186691868521226, "battery_remaining_percent": 98.96400000000006, "gps_fix_type": 6, "gps_satellites_visible": 18}
{"timestamp": 1764248460, "flight_mode": "MISSION", "armed": true, "latitude": 55.75592241082309, "longitude": 37.6175990995112, "altitude_relative": 20.009578542672962, "heading": 319.62792363421534, "speed": 10.005697157794653, "roll": 0.16269481691436152, "pitch": 0.05999698974565668, "battery_voltage": 16.7952563124877, "battery_current": 15.036401461925907, "battery_remaining_percent": 98.95800000000006, "gps_fix_type": 6, "gps_satellites_visible": 18}
{"timestamp": 1764248460, "flight_mode": "MISSION", "armed": true, "latitude": 55.75593867178559, "longitude": 37.61759914618019, "altitude_relative": 19.994206034310626, "heading": 319.62792363421534, "speed": 10.052913495828925, "roll": 0.07961141011038939, "pitch": 0.042614719478340966, "battery_voltage": 16.793687872819387, "battery_current": 14.886111055330586, "battery_remaining_percent": 98.95200000000006, "gps_fix_type": 6, "gps_satellites_visible": 18}
{"timestamp": 1764248460, "flight_mode": "MISSION", "armed": true, "latitude": 55.755954932748104, "longitude": 37.617599192849184, "altitude_relative": 19.978833525948286, "heading": 319.62792363421534, "speed": 10.100129833863196, "roll": -0.003471996693582835, "pitch": 0.025232449211025257, "battery_voltage": 16.792119433151072, "battery_current": 14.735820648735267, "battery_remaining_percent": 98.94600000000005, "gps_fix_type": 6, "gps_satellites_visible": 18}
{"timestamp": 1764248461, "flight_mode": "MISSION", "armed": true, "latitude": 55.75597119371061, "longitude": 37.61759923951817, "altitude_relative": 19.963461017585946, "heading": 319.62792363421534, "speed": 10.147346171897468, "roll": -0.08655540349755497, "pitch": 0.00785017894370954, "battery_voltage": 16.790550993482757, "battery_current": 14.585530242139948, "battery_remaining_percent": 98.94000000000005, "gps_fix_type": 6, "gps_satellites_visible": 18}
{"timestamp": 1764248461, "flight_mode": "MISSION", "armed": true, "latitude": 55.75598547943385, "longitude": 37.61759938191525, "altitude_relative": 19.970782892539905, "heading": 319.62792363421534, "speed": 10.12999185205518, "roll": -0.06975151131788904, "pitch": 0.04513367597922931, "battery_voltage": 16.791925532071797, "battery_current": 14.647105202141748, "battery_remaining_percent": 98.93400000000005, "gps_fix_type": 6, "gps_satellites_visible": 18}
{"timestamp": 1764248461, "flight_mode": "MISSION", "armed": true, "latitude": 55.75599976515709, "longitude": 37.617599524312325, "altitude_relative": 19.97810476749386, "heading": 319.62792363421534, "speed": 10.112637532212895, "roll": -0.0529476191382231, "pitch": 0.08241717301474907, "battery_voltage": 16.793300070660838, "battery_current": 14.708680162143551, "battery_remaining_percent": 98.92800000000005, "gps_fix_type": 6, "gps_satellites_visible": 18}
{"timestamp": 1764248461, "flight_mode": "MISSION", "armed": true, "latitude": 55.75601405088034, "longitude": 37.6175996667094, "altitude_relative": 19.98542664244782, "heading": 319.62792363421534, "speed": 10.095283212370608, "roll": -0.036143726958557165, "pitch": 0.11970067005026883, "battery_voltage": 16.79467460924988, "battery_current": 14.770255122145352, "battery_remaining_percent": 98.92200000000005, "gps_fix_type": 6, "gps_satellites_visible": 18}
{"timestamp": 1764248461, "flight_mode": "MISSION", "armed": true, "latitude": 55.75602833660358, "longitude": 37.61759980910648, "altitude_relative": 19.992748517401775, "heading": 319.62792363421534, "speed": 10.077928892528323, "roll": -0.01933983477889123, "pitch": 0.1569841670857886, "battery_voltage": 16.79604914783892, "battery_current": 14.831830082147155, "battery_remaining_percent": 98.91600000000005, "gps_fix_type": 6, "gps_satellites_visible": 18}
{"timestamp": 1764248462, "flight_mode": "MISSION", "armed": true, "latitude": 55.756042622326824, "longitude": 37.61759995150356, "altitude_relative": 20.000070392355735, "heading": 319.62792363421534, "speed": 10.060574572686036, "roll": -0.0025359425992252937, "pitch": 0.19426766412130836, "battery_voltage": 16.797423686427962, "battery_current": 14.893405042148956, "battery_remaining_percent": 98.91000000000005, "gps_fix_type": 6, "gps_satellites_visible": 18}
{"timestamp": 1764248462, "flight_mode": "MISSION", "armed": true, "latitude": 55.7560557778789, "longitude": 37.6175999343595, "altitude_relative": 19.984011530420705, "heading": 319.62792363421534, "speed": 10.05319954458395, "roll": -0.05514562379841608, "pitch": 0.17528603997454156, "battery_voltage": 16.797625094212997, "battery_current": 14.987033468373888, "battery_remaining_percent": 98.90400000000005, "gps_fix_type": 6, "gps_satellites_visible": 18}
{"timestamp": 1764248462, "flight_mode": "MISSION", "armed": true, "latitude": 55.75606893343098, "longitude": 37.61759991721544, "altitude_relative": 19.96795266848568, "heading": 319.62792363421534, "speed": 10.045824516481867, "roll": -0.10775530499760687, "pitch": 0.15630441582777474, "battery_voltage": 16.79782650199803, "battery_current": 15.08066189459882, "battery_remaining_percent": 98.89800000000005, "gps_fix_type": 6, "gps_satellites_visible": 18}
{"timestamp": 1764248462, "flight_mode": "MISSION", "armed": true, "latitude": 55.75608208898306, "longitude": 37.61759990007138, "altitude_relative": 19.95189380655065, "heading": 319.62792363421534, "speed": 10.038449488379781, "roll": -0.16036498619679765, "pitch": 0.13732279168100794, "battery_voltage": 16.79802790978307, "battery_current": 15.17429032082375, "battery_remaining_percent": 98.89200000000005, "gps_fix_type": 6, "gps_satellites_visible": 18}
{"timestamp": 1764248462, "flight_mode": "MISSION", "armed": true, "latitude": 55.75609524453514, "longitude": 37.61759988292733, "altitude_relative": 19.935834944615625, "heading": 319.62792363421534, "speed": 10.031074460277697, "roll": -0.21297466739598844, "pitch": 0.11834116753424112, "battery_voltage": 16.798229317568104, "battery_current": 15.267918747048682, "battery_remaining_percent": 98.88600000000005, "gps_fix_type": 6, "gps_satellites_visible": 18}
{"timestamp": 1764248463, "flight_mode": "MISSION", "armed": true, "latitude": 55.756108400087214, "longitude": 37.61759986578327, "altitude_relative": 19.919776082680595, "heading": 319.62792363421534, "speed": 10.023699432175611, "roll": -0.2655843485951792, "pitch": 0.09935954338747433, "battery_voltage": 16.79843072535314, "battery_current": 15.361547173273614, "battery_remaining_percent": 98.88000000000005, "gps_fix_type": 6, "gps_satellites_visible": 18}
{"timestamp": 1764248463, "flight_mode": "MISSION", "armed": true, "latitude": 55.75612032591685, "longitude": 37.617599753895334, "altitude_relative": 19.928579620857818, "heading": 319.62792363421534, "speed": 10.02514576479459, "roll": -0.1797807198159329, "pitch": 0.06793019936279958, "battery_voltage": 16.79716892829026, "battery_current": 15.319022612905867, "battery_remaining_percent": 98.87400000000005, "gps_fix_type": 6, "gps_satellites_visible": 18}
{"timestamp": 1764248463, "flight_mode": "MISSION", "armed": true, "latitude": 55.75613225174648, "longitude": 37.61759964200739, "altitude_relative": 19.93738315903504, "heading": 319.62792363421534, "speed": 10.02659209741357, "roll": -0.09397709103668664, "pitch": 0.03650085533812483, "battery_voltage": 16.795907131227388, "battery_current": 15.27649805253812, "battery_remaining_percent": 98.86800000000005, "gps_fix_type": 6, "gps_satellites_visible": 18}
{"timestamp": 1764248463, "flight_mode": "MISSION", "armed": true, "latitude": 55.75614417757612, "longitude": 37.617599530119456, "altitude_relative": 19.946186697212262, "heading": 319.62792363421534, "speed": 10.028038430032547, "roll": -0.008173462257440367, "pitch": 0.0050715113134501, "battery_voltage": 16.79464533416451, "battery_current": 15.233973492170373, "battery_remaining_percent": 98.86200000000005, "gps_fix_type": 6, "gps_satellites_visible": 18}
{"timestamp": 1764248463, "flight_mode": "MISSION", "armed": true, "latitude": 55.75615610340575, "longitude": 37.617599418231514, "altitude_relative": 19.954990235389484, "heading": 319.62792363421534, "speed": 10.029484762651526, "roll": 0.07763016652180593, "pitch": -0.02635783271122466, "battery_voltage": 16.793383537101636, "battery_current": 15.191448931802626, "battery_remaining_percent": 98.85600000000005, "gps_fix_type": 6, "gps_satellites_visible": 18}
{"timestamp": 1764248464, "flight_mode": "MISSION", "armed": true, "latitude": 55.75616802923538, "longitude": 37.61759930634358, "altitude_relative": 19.963793773566707, "heading": 319.62792363421534, "speed": 10.030931095270505, "roll": 0.16343379530105218, "pitch": -0.05778717673589939, "battery_voltage": 16.79212174003876, "battery_current": 15.148924371434878, "battery_remaining_percent": 98.85000000000005, "gps_fix_type": 6, "gps_satellites_visible": 18}
{"timestamp": 1764248464, "flight_mode": "MISSION", "armed": true, "latitude": 55.75617873926432, "longitude": 37.61759954920104, "altitude_relative": 19.964114197115915, "heading": 319.62792363421534, "speed": 10.059619083337981, "roll": 0.19016440460520603, "pitch": -0.06250471588934112, "battery_voltage": 16.793151977270067, "battery_current": 15.074086362895644, "battery_remaining_percent": 98.84400000000005, "gps_fix_type": 6, "gps_satellites_visible": 18}
{"timestamp": 1764248464, "flight_mode": "MISSION", "armed": true, "latitude": 55.75618944929325, "longitude": 37.6175997920585, "altitude_relative": 19.964434620665124, "heading": 319.62792363421534, "speed": 10.088307071405458, "roll": 0.2168950139093599, "pitch": -0.06722225504278286, "battery_voltage": 16.794182214501376, "battery_current": 14.99924835435641, "battery_remaining_percent": 98.83800000000005, "gps_fix_type": 6, "gps_satellites_visible": 18}
{"timestamp": 1764248464, "flight_mode": "MISSION", "armed": true, "latitude": 55.75620015932219, "longitude": 37.61760003491597, "altitude_relative": 19.964755044214336, "heading": 319.62792363421534, "speed": 10.116995059472933, "roll": 0.24362562321351372, "pitch": -0.07193979419622458, "battery_voltage": 16.795212451732688, "battery_current": 14.924410345817176, "battery_remaining_percent": 98.83200000000005, "gps_fix_type": 6, "gps_satellites_visible": 18}
{"timestamp": 1764248464, "flight_mode": "MISSION", "armed": true, "latitude": 55.75621086935112, "longitude": 37.61760027777343, "altitude_relative": 19.965075467763544, "heading": 319.62792363421534, "speed": 10.145683047540409, "roll": 0.2703562325176676, "pitch": -0.07665733334966632, "battery_voltage": 16.796242688963996, "battery_current": 14.849572337277943, "battery_remaining_percent": 98.82600000000005, "gps_fix_type": 6, "gps_satellites_visible": 18}
{"timestamp": 1764248465, "flight_mode": "MISSION", "armed": true, "latitude": 55.75622157938006, "longitude": 37.61760052063089, "altitude_relative": 19.965395891312752, "heading": 319.62792363421534, "speed": 10.174371035607885, "roll": 0.29708684182182143, "pitch": -0.08137487250310804, "battery_voltage": 16.797272926195305, "battery_current": 14.774734328738708, "battery_remaining_percent": 98.82000000000005, "gps_fix_type": 6, "gps_satellites_visible": 18}
{"timestamp": 1764248465, "flight_mode": "MISSION", "armed": true, "latitude": 55.756230817708946, "longitude": 37.617600248327044, "altitude_relative": 19.966872379214934, "heading": 319.62792363421534, "speed": 10.10457723086819, "roll": 0.3129658641382955, "pitch": 0.02020048673441635, "battery_voltage": 16.795954791150905, "battery_current": 14.790559074230824, "battery_remaining_percent": 98.81400000000005, "gps_fix_type": 6, "gps_satellites_visible": 18}
{"timestamp": 1764248465, "flight_mode": "MISSION", "armed": true, "latitude": 55.75624005603783, "longitude": 37.61759997602321, "altitude_relative": 19.968348867117115, "heading": 319.62792363421534, "speed": 10.034783426128493, "roll": 0.3288448864547696, "pitch": 0.12177584597194074, "battery_voltage": 16.794636656106505, "battery_current": 14.806383819722942, "battery_remaining_percent": 98.80800000000005, "gps_fix_type": 6, "gps_satellites_visible": 18}
{"timestamp": 1764248465, "flight_mode": "MISSION", "armed": true, "latitude": 55.75624929436672, "longitude": 37.617599703719364, "altitude_relative": 19.969825355019296, "heading": 319.62792363421534, "speed": 9.9649896213888, "roll": 0.3447239087712437, "pitch": 0.2233512052094651, "battery_voltage": 16.79331852106211, "battery_current": 14.822208565215059, "battery_remaining_percent": 98.80200000000005, "gps_fix_type": 6, "gps_satellites_visible": 18}
{"timestamp": 1764248465, "flight_mode": "MISSION", "armed": true, "latitude": 55.756258532695604, "longitude": 37.61759943141553, "altitude_relative": 19.971301842921477, "heading": 319.62792363421534, "speed": 9.895195816649103, "roll": 0.3606029310877178, "pitch": 0.32492656444698953, "battery_voltage": 16.79200038601771, "battery_current": 14.838033310707177, "battery_remaining_percent": 98.79600000000005, "gps_fix_type": 6, "gps_satellites_visible": 18}
{"timestamp": 1764248466, "flight_mode": "MISSION", "armed": true, "latitude": 55.75626777102449, "longitude": 37.617599159111684, "altitude_relative": 19.972778330823658, "heading": 319.62792363421534, "speed": 9.825402011909407, "roll": 0.3764819534041919, "pitch": 0.4265019236845139, "battery_voltage": 16.79068225097331, "battery_current": 14.853858056199293, "battery_remaining_percent": 98.79000000000005, "gps_fix_type": 6, "gps_satellites_visible": 18}
{"timestamp": 1764248466, "flight_mode": "MISSION", "armed": true, "latitude": 55.756276356901814, "longitude": 37.61759925037719, "altitude_relative": 19.96092243118982, "heading": 319.62792363421534, "speed": 9.847675542800793, "roll": 0.37872968415645997, "pitch": 0.31520322389812727, "battery_voltage": 16.791077230053187, "battery_current": 14.897824133372842, "battery_remaining_percent": 98.78400000000005, "gps_fix_type": 6, "gps_satellites_visible": 18}
{"timestamp": 1764248466, "flight_mode": "MISSION", "armed": true, "latitude": 55.75628494277913, "longitude": 37.617599341642695, "altitude_relative": 19.949066531555985, "heading": 319.62792363421534, "speed": 9.869949073692178, "roll": 0.38097741490872805, "pitch": 0.2039045241117406, "battery_voltage": 16.79147220913307, "battery_current": 14.941790210546392, "battery_remaining_percent": 98.77800000000005, "gps_fix_type": 6, "gps_satellites_visible": 18}
