{"timestamp": 1764248440, "flight_mode": "TAKEOFF", "armed": true, "latitude": 55.7557994139855, "longitude": 37.617600536306924, "altitude_relative": 0.9303578940826343, "heading": 0, "speed": 0, "roll": 0.2770151043500838, "pitch": 0.23764009170394518, "battery_voltage": 16.79232952309179, "battery_current": 19.687566835911372, "battery_remaining_percent": 99.95, "gps_fix_type": 6, "gps_satellites_visible": 18}
{"timestamp": 1764248441, "flight_mode": "TAKEOFF", "armed": true, "latitude": 55.75580047205355, "longitude": 37.617599094484056, "altitude_relative": 1.9883595711027375, "heading": 0, "speed": 0.1742119942853788, "roll": -0.3866971833456707, "pitch": -0.18568349888461566, "battery_voltage": 16.797891851233715, "battery_current": 20.213950298114373, "battery_remaining_percent": 99.9, "gps_fix_type": 6, "gps_satellites_visible": 18}
{"timestamp": 1764248442, "flight_mode": "TAKEOFF", "armed": true, "latitude": 55.755799771625874, "longitude": 37.61760063123241, "altitude_relative": 3.0954230184810974, "heading": 0, "speed": 0, "roll": 0.1549085577599717, "pitch": 0.4978887395557745, "battery_voltage": 16.798634541201945, "battery_current": 20.073502632490012, "battery_remaining_percent": 99.85000000000001, "gps_fix_type": 6, "gps_satellites_visible": 18}
{"timestamp": 1764248443, "flight_mode": "TAKEOFF", "armed": true, "latitude": 55.755800767430806, "longitude": 37.617600986542804, "altitude_relative": 3.996759236421342, "heading": 0, "speed": 0.12841656961134512, "roll": -0.2696965781989157, "pitch": -0.43800255432253965, "battery_voltage": 16.794103142487764, "battery_current": 20.291047846295147, "battery_remaining_percent": 99.80000000000001, "gps_fix_type": 6, "gps_satellites_visible": 18}
{"timestamp": 1764248444, "flight_mode": "TAKEOFF", "armed": true, "latitude": 55.75579903470345, "longitude": 37.61760095933773, "altitude_relative": 5.095854518728282, "heading": 0, "speed": 0.1879877135546298, "roll": -0.2239944048692596, "pitch": 0.2953782241221806, "battery_voltage": 16.79285198392832, "battery_current": 19.856913993939198, "battery_remaining_percent": 99.75000000000001, "gps_fix_type": 6, "gps_satellites_visible": 18}
{"timestamp": 1764248445, "flight_mode": "TAKEOFF", "armed": true, "latitude": 55.755800352707034, "longitude": 37.61760054629402, "altitude_relative": 6.025873044710827, "heading": 0, "speed": 0, "roll": 0.38309759044689096, "pitch": 0.13893954696658373, "battery_voltage": 16.79140008488467, "battery_current": 19.822488956857757, "battery_remaining_percent": 99.70000000000002, "gps_fix_type": 6, "gps_satellites_visible": 18}
{"timestamp": 1764248446, "flight_mode": "TAKEOFF", "armed": true, "latitude": 55.75580092399065, "longitude": 37.61760098882553, "altitude_relative": 7.005977195129382, "heading": 0, "speed": 0, "roll": -0.2283867774290418, "pitch": -0.0870388321125728, "battery_voltage": 16.79925768607789, "battery_current": 20.330660363335465, "battery_remaining_percent": 99.65000000000002, "gps_fix_type": 6, "gps_satellites_visible": 18}
{"timestamp": 1764248447, "flight_mode": "TAKEOFF", "armed": true, "latitude": 55.75579980367405, "longitude": 37.61760054170668, "altitude_relative": 8.076080152654912, "heading": 0, "speed": 0, "roll": -0.3025031037868815, "pitch": 0.036177643411666516, "battery_voltage": 16.792608974475154, "battery_current": 20.288526388793404, "battery_remaining_percent": 99.60000000000002, "gps_fix_type": 6, "gps_satellites_visible": 18}
{"timestamp": 1764248448, "flight_mode": "TAKEOFF", "armed": true, "latitude": 55.75580007211596, "longitude": 37.61759937429975, "altitude_relative": 8.96896480963576, "heading": 0, "speed": 0.020023532153001844, "roll": -0.4387230396799505, "pitch": 0.42179767653494693, "battery_voltage": 16.796492087729675, "battery_current": 19.913525819769767, "battery_remaining_percent": 99.55000000000003, "gps_fix_type": 6, "gps_satellites_visible": 18}
{"timestamp": 1764248449, "flight_mode": "TAKEOFF", "armed": true, "latitude": 55.755800181991525, "longitude": 37.61760007194081, "altitude_relative": 10.078518444572673, "heading": 0, "speed": 0, "roll": -0.06334587241210254, "pitch": -0.44672903759816796, "battery_voltage": 16.791355380050415, "battery_current": 19.548023163019955, "battery_remaining_percent": 99.50000000000003, "gps_fix_type": 6, "gps_satellites_visible": 18}
{"timestamp": 1764248450, "flight_mode": "TAKEOFF", "armed": true, "latitude": 55.75580037084913, "longitude": 37.617599868386186, "altitude_relative": 10.97688822294179, "heading": 0, "speed": 0.09981006120353642, "roll": 0.48188574400301787, "pitch": 0.3819021943864489, "battery_voltage": 16.792856085880878, "battery_current": 19.711564987857617, "battery_remaining_percent": 99.45000000000003, "gps_fix_type": 6, "gps_satellites_visible": 18}
{"timestamp": 1764248451, "flight_mode": "TAKEOFF", "armed": true, "latitude": 55.755800741923316, "longitude": 37.617599261299866, "altitude_relative": 11.95727718073157, "heading": 0, "speed": 0, "roll": 0.3208994895020634, "pitch": -0.2506757687948312, "battery_voltage": 16.79443219134086, "battery_current": 20.29061947298402, "battery_remaining_percent": 99.40000000000003, "gps_fix_type": 6, "gps_satellites_visible": 18}
{"timestamp": 1764248452, "flight_mode": "TAKEOFF", "armed": true, "latitude": 55.75579908235905, "longitude": 37.61760059121872, "altitude_relative": 13.0076525696053, "heading": 0, "speed": 0.0659809331329414, "roll": -0.08927477093859837, "pitch": 0.12659570843237422, "battery_voltage": 16.797869750696837, "battery_current": 19.9393726723784, "battery_remaining_percent": 99.35000000000004, "gps_fix_type": 6, "gps_satellites_visible": 18}
{"timestamp": 1764248453, "flight_mode": "TAKEOFF", "armed": true, "latitude": 55.75579928997173, "longitude": 37.61759934563519, "altitude_relative": 13.984961049650323, "heading": 0, "speed": 0.15062814826462273, "roll": -0.008757927435511847, "pitch": 0.013589919959107855, "battery_voltage": 16.7983595754438, "battery_current": 20.4763748148032, "battery_remaining_percent": 99.30000000000004, "gps_fix_type": 6, "gps_satellites_visible": 18}
{"timestamp": 1764248454, "flight_mode": "TAKEOFF", "armed": true, "latitude": 55.755800116439644, "longitude": 37.617599558657865, "altitude_relative": 14.949919293908733, "heading": 0, "speed": 0.010522139564759586, "roll": 0.11036345512506529, "pitch": 0.207046974773904, "battery_voltage": 16.79124855068692, "battery_current": 20.189289396418932, "battery_remaining_percent": 99.25000000000004, "gps_fix_type": 6, "gps_satellites_visible": 18}
{"timestamp": 1764248455, "flight_mode": "TAKEOFF", "armed": true, "latitude": 55.75579929099558, "longitude": 37.61759981334532, "altitude_relative": 15.916794675878924, "heading": 0, "speed": 0.16860354237682407, "roll": 0.1375131698939146, "pitch": -0.4860985122637915, "battery_voltage": 16.793835312460573, "battery_current": 20.053517006916234, "battery_remaining_percent": 99.20000000000005, "gps_fix_type": 6, "gps_satellites_visible": 18}
{"timestamp": 1764248456, "flight_mode": "TAKEOFF", "armed": true, "latitude": 55.75579904862759, "longitude": 37.617599518722955, "altitude_relative": 17.065016462135084, "heading": 0, "speed": 0.139136516908677, "roll": 0.4810558511944798, "pitch": -0.12028230892188363, "battery_voltage": 16.794320094294072, "battery_current": 19.765286503995256, "battery_remaining_percent": 99.15000000000005, "gps_fix_type": 6, "gps_satellites_visible": 18}
{"timestamp": 1764248457, "flight_mode": "TAKEOFF", "armed": true, "latitude": 55.75580076935162, "longitude": 37.61759985653709, "altitude_relative": 18.027688594358448, "heading": 0, "speed": 0.014493494931926587, "roll": 0.46727752795376065, "pitch": -0.10462312388688899, "battery_voltage": 16.794632749763817, "battery_current": 19.731973798971605, "battery_remaining_percent": 99.10000000000005, "gps_fix_type": 6, "gps_satellites_visible": 18}
{"timestamp": 1764248458, "flight_mode": "TAKEOFF", "armed": true, "latitude": 55.75579991243757, "longitude": 37.61760081775833, "altitude_relative": 18.93631955952195, "heading": 0, "speed": 0.08103727152215529, "roll": -0.05211286912983959, "pitch": -0.43610817412460634, "battery_voltage": 16.793999184558263, "battery_current": 20.34297499696495, "battery_remaining_percent": 99.05000000000005, "gps_fix_type": 6, "gps_satellites_visible": 18}
{"timestamp": 1764248459, "flight_mode": "TAKEOFF", "armed": true, "latitude": 55.755799431597104, "longitude": 37.61759977753109, "altitude_relative": 19.972102096124196, "heading": 0, "speed": 0.18751812622452796, "roll": -0.15888462434389572, "pitch": -0.3476641345058449, "battery_voltage": 16.791536582536107, "battery_current": 20.22518393663715, "battery_remaining_percent": 99.00000000000006, "gps_fix_type": 6, "gps_satellites_visible": 18}
{"timestamp": 1764248460, "flight_mode": "MISSION", "armed": true, "latitude": 55.755889888898075, "longitude": 37.61759900617322, "altitude_relative": 20.040323559397642, "heading": 319.62792363421534, "speed": 9.91126448172611, "roll": 0.3288616305223059, "pitch": 0.09476153028028811, "battery_voltage": 16.79839319182433, "battery_current": 15.336982275116545, "battery_remaining_percent": 98.97000000000006, "gps_fix_type": 6, "gps_satellites_visible": 18}
{"timestamp": 1764248461, "flight_mode": "MISSION", "armed": true, "latitude": 55.75597119371061, "longitude": 37.61759923951817, "altitude_relative": 19.963461017585946, "heading": 319.62792363421534, "speed": 10.147346171897468, "roll": -0.08655540349755497, "pitch": 0.00785017894370954, "battery_voltage": 16.790550993482757, "battery_current": 14.585530242139948, "battery_remaining_percent": 98.94000000000005, "gps_fix_type": 6, "gps_satellites_visible": 18}
{"timestamp": 1764248462, "flight_mode": "MISSION", "armed": true, "latitude": 55.756042622326824, "longitude": 37.61759995150356, "altitude_relative": 20.000070392355735, "heading": 319.62792363421534, "speed": 10.060574572686036, "roll": -0.0025359425992252937, "pitch": 0.19426766412130836, "battery_voltage": 16.797423686427962, "battery_current": 14.893405042148956, "battery_remaining_percent": 98.91000000000005, "gps_fix_type": 6, "gps_satellites_visible": 18}
{"timestamp": 1764248463, "flight_mode": "MISSION", "armed": true, "latitude": 55.756108400087214, "longitude": 37.61759986578327, "altitude_relative": 19.919776082680595, "heading": 319.62792363421534, "speed": 10.023699432175611, "roll": -0.2655843485951792, "pitch": 0.09935954338747433, "battery_voltage": 16.79843072535314, "battery_current": 15.361547173273614, "battery_remaining_percent": 98.88000000000005, "gps_fix_type": 6, "gps_satellites_visible": 18}
{"timestamp": 1764248464, "flight_mode": "MISSION", "armed": true, "latitude": 55.75616802923538, "longitude": 37.61759930634358, "altitude_relative": 19.963793773566707, "heading": 319.62792363421534, "speed": 10.030931095270505, "roll": 0.16343379530105218, "pitch": -0.05778717673589939, "battery_voltage": 16.79212174003876, "battery_current": 15.148924371434878, "battery_remaining_percent": 98.85000000000005, "gps_fix_type": 6, "gps_satellites_visible": 18}
{"timestamp": 1764248465, "flight_mode": "MISSION", "armed": true, "latitude": 55.75622157938006, "longitude": 37.61760052063089, "altitude_relative": 19.965395891312752, "heading": 319.62792363421534, "speed": 10.174371035607885, "roll": 0.29708684182182143, "pitch": -0.08137487250310804, "battery_voltage": 16.797272926195305, "battery_current": 14.774734328738708, "battery_remaining_percent": 98.82000000000005, "gps_fix_type": 6, "gps_satellites_visible": 18}
{"timestamp": 1764248466, "flight_mode": "MISSION", "armed": true, "latitude": 55.75626777102449, "longitude": 37.617599159111684, "altitude_relative": 19.972778330823658, "heading": 319.62792363421534, "speed": 9.825402011909407, "roll": 0.3764819534041919, "pitch": 0.4265019236845139, "battery_voltage": 16.79068225097331, "battery_current": 14.853858056199293, "battery_remaining_percent": 98.79000000000005, "gps_fix_type": 6, "gps_satellites_visible": 18}
{"timestamp": 1764248467, "flight_mode": "MISSION", "armed": true, "latitude": 55.7563107004111, "longitude": 37.61759961543921, "altitude_relative": 19.91349883265448, "heading": 319.62792363421534, "speed": 9.936769666366335, "roll": 0.38772060716553225, "pitch": -0.12999157524741933, "battery_voltage": 16.792657146372708, "battery_current": 15.07368844206704, "battery_remaining_percent": 98.76000000000005, "gps_fix_type": 6, "gps_satellites_visible": 18}
{"timestamp": 1764248468, "flight_mode": "MISSION", "armed": true, "latitude": 55.756351100742854, "longitude": 37.61760046482615, "altitude_relative": 19.93186130239188, "heading": 319.62792363421534, "speed": 9.853891925586064, "roll": -0.15779068237026417, "pitch": -0.41039898272291553, "battery_voltage": 16.796163114675096, "battery_current": 15.201686105091587, "battery_remaining_percent": 98.73000000000005, "gps_fix_type": 6, "gps_satellites_visible": 18}
{"timestamp": 1764248469, "flight_mode": "MISSION", "armed": true, "latitude": 55.75638582713635, "longitude": 37.61760054251001, "altitude_relative": 20.09728674037241, "heading": 319.62792363421534, "speed": 10.123323759014427, "roll": -0.22174242878988715, "pitch": -0.4242747806980861, "battery_voltage": 16.792741834196857, "battery_current": 15.411230350812485, "battery_remaining_percent": 98.70000000000005, "gps_fix_type": 6, "gps_satellites_visible": 18}
{"timestamp": 1764248470, "flight_mode": "MISSION", "armed": true, "latitude": 55.75641706916183, "longitude": 37.61763220876181, "altitude_relative": 19.964036555772697, "heading": 338.28778479423744, "speed": 9.832323346967195, "roll": -0.49153591777628736, "pitch": 0.36592899970790616, "battery_voltage": 16.79421562793019, "battery_current": 15.230535858507062, "battery_remaining_percent": 98.67000000000004, "gps_fix_type": 6, "gps_satellites_visible": 18}
{"timestamp": 1764248471, "flight_mode": "MISSION", "armed": true, "latitude": 55.7564448079092, "longitude": 37.61766051782908, "altitude_relative": 20.028605897009072, "heading": 338.28778479423744, "speed": 10.052384684075383, "roll": 0.1422163896738452, "pitch": -0.3644654589761722, "battery_voltage": 16.792014856303307, "battery_current": 15.017495715506366, "battery_remaining_percent": 98.64000000000004, "gps_fix_type": 6, "gps_satellites_visible": 18}
{"timestamp": 1764248472, "flight_mode": "MISSION", "armed": true, "latitude": 55.75646920793945, "longitude": 37.617687324433625, "altitude_relative": 19.922135977650786, "heading": 338.28778479423744, "speed": 9.877543558846721, "roll": -0.39186191945417126, "pitch": -0.35405235960939263, "battery_voltage": 16.79550483737668, "battery_current": 15.342963542713463, "battery_remaining_percent": 98.61000000000004, "gps_fix_type": 6, "gps_satellites_visible": 18}
{"timestamp": 1764248473, "flight_mode": "MISSION", "armed": true, "latitude": 55.75649278138186, "longitude": 37.61771024509267, "altitude_relative": 19.92354980883194, "heading": 338.28778479423744, "speed": 9.854720795293664, "roll": 0.25014661540392025, "pitch": -0.46264608329014933, "battery_voltage": 16.79469133421221, "battery_current": 14.929305174708052, "battery_remaining_percent": 98.58000000000004, "gps_fix_type": 6, "gps_satellites_visible": 18}
{"timestamp": 1764248474, "flight_mode": "MISSION", "armed": true, "latitude": 55.75651301247977, "longitude": 37.61773020459819, "altitude_relative": 19.944777798801592, "heading": 338.28778479423744, "speed": 10.104788921916617, "roll": 0.1662391409686088, "pitch": 0.06706666385961124, "battery_voltage": 16.79234958888906, "battery_current": 14.765795409952801, "battery_remaining_percent": 98.55000000000004, "gps_fix_type": 6, "gps_satellites_visible": 18}
{"timestamp": 1764248475, "flight_mode": "MISSION", "armed": true, "latitude": 55.756532212169546, "longitude": 37.61774996610911, "altitude_relative": 20.07859905619637, "heading": 338.28778479423744, "speed": 9.887090890594221, "roll": -0.16539539822690197, "pitch": -0.4176936885159034, "battery_voltage": 16.793802423757054, "battery_current": 14.60541153136386, "battery_remaining_percent": 98.52000000000004, "gps_fix_type": 6, "gps_satellites_visible": 18}
{"timestamp": 1764248476, "flight_mode": "MISSION", "armed": true, "latitude": 55.7565490861917, "longitude": 37.617766999859036, "altitude_relative": 19.971977829142787, "heading": 338.28778479423744, "speed": 9.928052839506453, "roll": 0.11082224004215868, "pitch": -0.20258240980908804, "battery_voltage": 16.799357308674946, "battery_current": 14.53905654617285, "battery_remaining_percent": 98.49000000000004, "gps_fix_type": 6, "gps_satellites_visible": 18}
{"timestamp": 1764248477, "flight_mode": "MISSION", "armed": true, "latitude": 55.75656374413279, "longitude": 37.617782544412385, "altitude_relative": 20.03659898021984, "heading": 338.28778479423744, "speed": 9.859171765814835, "roll": -0.3751279866104197, "pitch": 0.40122492615935335, "battery_voltage": 16.799131786448513, "battery_current": 14.617617900424536, "battery_remaining_percent": 98.46000000000004, "gps_fix_type": 6, "gps_satellites_visible": 18}
{"timestamp": 1764248478, "flight_mode": "MISSION", "armed": true, "latitude": 55.75657664142101, "longitude": 37.61779541833257, "altitude_relative": 20.099933184452016, "heading": 338.28778479423744, "speed": 10.183393946216084, "roll": 0.47817729240269224, "pitch": 0.17700549046444236, "battery_voltage": 16.793359068029975, "battery_current": 15.412011276809158, "battery_remaining_percent": 98.43000000000004, "gps_fix_type": 6, "gps_satellites_visible": 18}
{"timestamp": 1764248479, "flight_mode": "MISSION", "armed": true, "latitude": 55.756588418211614, "longitude": 37.61780854425859, "altitude_relative": 19.942131967402204, "heading": 338.28778479423744, "speed": 10.070356075426677, "roll": 0.3405199631913284, "pitch": -0.033651480247021914, "battery_voltage": 16.792298567965663, "battery_current": 15.171832379315973, "battery_remaining_percent": 98.40000000000003, "gps_fix_type": 6, "gps_satellites_visible": 18}
{"timestamp": 1764248480, "flight_mode": "MISSION", "armed": true, "latitude": 55.75651026076332, "longitude": 37.617819738580884, "altitude_relative": 20.010570977575078, "heading": 197.53534566308002, "speed": 9.820289333560883, "roll": 0.2950488508239355, "pitch": 0.43029645492898205, "battery_voltage": 16.793051033688176, "battery_current": 14.677334485286268, "battery_remaining_percent": 98.37000000000003, "gps_fix_type": 6, "gps_satellites_visible": 18}
{"timestamp": 1764248481, "flight_mode": "MISSION", "armed": true, "latitude": 55.756439671962276, "longitude": 37.617829190319384, "altitude_relative": 19.964062898954637, "heading": 197.53534566308002, "speed": 9.820017812414694, "roll": -0.19098481248986932, "pitch": 0.47812293878252266, "battery_voltage": 16.795614846968814, "battery_current": 15.126752017968414, "battery_remaining_percent": 98.34000000000003, "gps_fix_type": 6, "gps_satellites_visible": 18}
{"timestamp": 1764248482, "flight_mode": "MISSION", "armed": true, "latitude": 55.756376148191734, "longitude": 37.617838443859945, "altitude_relative": 20.05191917276377, "heading": 197.53534566308002, "speed": 9.91280447226963, "roll": -0.4060294304137757, "pitch": 0.446913593608092, "battery_voltage": 16.79805265333725, "battery_current": 14.615834293281157, "battery_remaining_percent": 98.31000000000003, "gps_fix_type": 6, "gps_satellites_visible": 18}
{"timestamp": 1764248483, "flight_mode": "MISSION", "armed": true, "latitude": 55.756318062821535, "longitude": 37.617845838018624, "altitude_relative": 20.01650922110246, "heading": 197.53534566308002, "speed": 9.882086047998346, "roll": -0.23302308160262908, "pitch": 0.09334835674450381, "battery_voltage": 16.79672772663664, "battery_current": 15.341038384864401, "battery_remaining_percent": 98.28000000000003, "gps_fix_type": 6, "gps_satellites_visible": 18}
{"timestamp": 1764248484, "flight_mode": "MISSION", "armed": true, "latitude": 55.756265890081664, "longitude": 37.61785349606414, "altitude_relative": 19.915850006628222, "heading": 197.53534566308002, "speed": 10.109879390670974, "roll": -0.12632718529391707, "pitch": -0.008890860207462326, "battery_voltage": 16.795638202332263, "battery_current": 14.575048871105627, "battery_remaining_percent": 98.25000000000003, "gps_fix_type": 6, "gps_satellites_visible": 18}
{"timestamp": 1764248485, "flight_mode": "MISSION", "armed": true, "latitude": 55.756219038881895, "longitude": 37.61786002363425, "altitude_relative": 19.91858437679426, "heading": 197.53534566308002, "speed": 9.9956788905218, "roll": 0.42057524173488303, "pitch": -0.42972921099894723, "battery_voltage": 16.790437600549502, "battery_current": 14.528854037545594, "battery_remaining_percent": 98.22000000000003, "gps_fix_type": 6, "gps_satellites_visible": 18}
{"timestamp": 1764248486, "flight_mode": "MISSION", "armed": true, "latitude": 55.756177877136984, "longitude": 37.61786507614959, "altitude_relative": 20.039346534151196, "heading": 197.53534566308002, "speed": 9.966852917114112, "roll": 0.2850449401790819, "pitch": -0.3585874536410144, "battery_voltage": 16.794163250473158, "battery_current": 14.636888233056297, "battery_remaining_percent": 98.19000000000003, "gps_fix_type": 6, "gps_satellites_visible": 18}
{"timestamp": 1764248487, "flight_mode": "MISSION", "armed": true, "latitude": 55.75613893931057, "longitude": 37.61787127536524, "altitude_relative": 20.081181743418067, "heading": 197.53534566308002, "speed": 10.115207721820678, "roll": 0.06766162171287216, "pitch": -0.04147363767219958, "battery_voltage": 16.7992412045826, "battery_current": 14.565651545470283, "battery_remaining_percent": 98.16000000000003, "gps_fix_type": 6, "gps_satellites_visible": 18}
{"timestamp": 1764248488, "flight_mode": "MISSION", "armed": true, "latitude": 55.756104966126045, "longitude": 37.617875599758506, "altitude_relative": 20.00719689188746, "heading": 197.53534566308002, "speed": 10.173208627237052, "roll": -0.49293843150025307, "pitch": -0.018959947693944934, "battery_voltage": 16.79867594487575, "battery_current": 15.220246403191803, "battery_remaining_percent": 98.13000000000002, "gps_fix_type": 6, "gps_satellites_visible": 18}
{"timestamp": 1764248489, "flight_mode": "MISSION", "armed": true, "latitude": 55.75607547177496, "longitude": 37.61788035778814, "altitude_relative": 20.008796107250458, "heading": 197.53534566308002, "speed": 10.019668099802104, "roll": 0.1678260468880467, "pitch": -0.037135063976547866, "battery_voltage": 16.795438207580904, "battery_current": 14.952061786813825, "battery_remaining_percent": 98.10000000000002, "gps_fix_type": 6, "gps_satellites_visible": 18}
{"timestamp": 1764248490, "flight_mode": "MISSION", "armed": true, "latitude": 55.756047627812755, "longitude": 37.617916873081455, "altitude_relative": 20.09414151361507, "heading": 177.5535859962622, "speed": 9.969055662194553, "roll": 0.36075230791489743, "pitch": -0.2120496409735223, "battery_voltage": 16.79321157570358, "battery_current": 14.800225092309354, "battery_remaining_percent": 98.07000000000002, "gps_fix_type": 6, "gps_satellites_visible": 18}
{"timestamp": 1764248491, "flight_mode": "MISSION", "armed": true, "latitude": 55.75602269130513, "longitude": 37.617947773679816, "altitude_relative": 20.012232850294595, "heading": 177.5535859962622, "speed": 9.92436201640171, "roll": 0.23611304614104445, "pitch": -0.04301346233298453, "battery_voltage": 16.793277608492655, "battery_current": 14.553546692253573, "battery_remaining_percent": 98.04000000000002, "gps_fix_type": 6, "gps_satellites_visible": 18}
{"timestamp": 1764248492, "flight_mode": "MISSION", "armed": true, "latitude": 55.756000721144304, "longitude": 37.617977829485746, "altitude_relative": 20.033994203182722, "heading": 177.5535859962622, "speed": 10.09778149560836, "roll": 0.19204684460347754, "pitch": -0.48588384474625634, "battery_voltage": 16.79607435854675, "battery_current": 15.376370656781676, "battery_remaining_percent": 98.01000000000002, "gps_fix_type": 6, "gps_satellites_visible": 18}
{"timestamp": 1764248493, "flight_mode": "MISSION", "armed": true, "latitude": 55.755980839838145, "longitude": 37.61800424867519, "altitude_relative": 20.081198823440122, "heading": 177.5535859962622, "speed": 9.974901160158986, "roll": -0.4998498155122605, "pitch": -0.48631106499468435, "battery_voltage": 16.793865485061673, "battery_current": 14.925235238598077, "battery_remaining_percent": 97.98000000000002, "gps_fix_type": 6, "gps_satellites_visible": 18}
{"timestamp": 1764248494, "flight_mode": "MISSION", "armed": true, "latitude": 55.7559627355461, "longitude": 37.618026877115604, "altitude_relative": 19.92226387184294, "heading": 177.5535859962622, "speed": 10.133441810477724, "roll": -0.06842121969287351, "pitch": 0.2880670520989791, "battery_voltage": 16.792474196994974, "battery_current": 15.144682248070783, "battery_remaining_percent": 97.95000000000002, "gps_fix_type": 6, "gps_satellites_visible": 18}
{"timestamp": 1764248495, "flight_mode": "MISSION", "armed": true, "latitude": 55.75594573874035, "longitude": 37.61804879024189, "altitude_relative": 19.924942694751746, "heading": 177.5535859962622, "speed": 10.144422607514276, "roll": 0.23409634056540052, "pitch": -0.017314765849312796, "battery_voltage": 16.795336587123543, "battery_current": 15.08638975274608, "battery_remaining_percent": 97.92000000000002, "gps_fix_type": 6, "gps_satellites_visible": 18}
{"timestamp": 1764248496, "flight_mode": "MISSION", "armed": true, "latitude": 55.755931308995876, "longitude": 37.61806656057739, "altitude_relative": 19.957745000888007, "heading": 177.5535859962622, "speed": 9.892285363247339, "roll": -0.1918290119801257, "pitch": -0.0769186641152314, "battery_voltage": 16.792375003659263, "battery_current": 15.396239424532878, "battery_remaining_percent": 97.89000000000001, "gps_fix_type": 6, "gps_satellites_visible": 18}
{"timestamp": 1764248497, "flight_mode": "MISSION", "armed": true, "latitude": 55.755918092242254, "longitude": 37.618084376097144, "altitude_relative": 19.990802286802037, "heading": 177.5535859962622, "speed": 9.902773691160137, "roll": -0.30457637281320327, "pitch": -0.2222950636418778, "battery_voltage": 16.797802552273478, "battery_current": 15.325211051383237, "battery_remaining_percent": 97.86000000000001, "gps_fix_type": 6, "gps_satellites_visible": 18}
{"timestamp": 1764248498, "flight_mode": "MISSION", "armed": true, "latitude": 55.755906252325694, "longitude": 37.6180999388934, "altitude_relative": 19.911956365225667, "heading": 177.5535859962622, "speed": 10.045317910431486, "roll": 0.14223235937607082, "pitch": -0.24963986391004, "battery_voltage": 16.797679629634604, "battery_current": 14.509585412605317, "battery_remaining_percent": 97.83000000000001, "gps_fix_type": 6, "gps_satellites_visible": 18}
{"timestamp": 1764248499, "flight_mode": "MISSION", "armed": true, "latitude": 55.755896054710625, "longitude": 37.61811286875735, "altitude_relative": 20.03548198229578, "heading": 177.5535859962622, "speed": 9.816006687017854, "roll": -0.48638290849591614, "pitch": -0.1001125980367128, "battery_voltage": 16.791817411073957, "battery_current": 15.075792801980871, "battery_remaining_percent": 97.80000000000001, "gps_fix_type": 6, "gps_satellites_visible": 18}
{"timestamp": 1764248500, "flight_mode": "MISSION", "armed": true, "latitude": 55.75597583726315, "longitude": 37.61812635460859, "altitude_relative": 20.019957261870086, "heading": 3.0815500185168503, "speed": 9.978838069161718, "roll": -0.2252008127418459, "pitch": 0.29678031853869646, "battery_voltage": 16.796827159288053, "battery_current": 15.167653813484142, "battery_remaining_percent": 97.77000000000001, "gps_fix_type": 6, "gps_satellites_visible": 18}
{"timestamp": 1764248501, "flight_mode": "MISSION", "armed": true, "latitude": 55.75604790866026, "longitude": 37.61813753961835, "altitude_relative": 20.069524815300372, "heading": 3.0815500185168503, "speed": 9.883800724613668, "roll": -0.26836498256474395, "pitch": 0.21864986788856178, "battery_voltage": 16.79212950123673, "battery_current": 15.124181230999776, "battery_remaining_percent": 97.74000000000001, "gps_fix_type": 6, "gps_satellites_visible": 18}
{"timestamp": 1764248502, "flight_mode": "MISSION", "armed": true, "latitude": 55.75611298611186, "longitude": 37.61814778215531, "altitude_relative": 19.96038998639795, "heading": 3.0815500185168503, "speed": 10.154138885509276, "roll": 0.29919720867333055, "pitch": -0.427197325640428, "battery_voltage": 16.79333571157953, "battery_current": 14.595920485981669, "battery_remaining_percent": 97.71000000000001, "gps_fix_type": 6, "gps_satellites_visible": 18}
{"timestamp": 1764248503, "flight_mode": "MISSION", "armed": true, "latitude": 55.756171643570276, "longitude": 37.61815617508573, "altitude_relative": 20.023371468748216, "heading": 3.0815500185168503, "speed": 9.824299283029122, "roll": 0.035669366565781124, "pitch": 0.23015603019962394, "battery_voltage": 16.792473961638922, "battery_current": 14.680787221357303, "battery_remaining_percent": 97.68, "gps_fix_type": 6, "gps_satellites_visible": 18}
{"timestamp": 1764248504, "flight_mode": "MISSION", "armed": true, "latitude": 55.75622451844524, "longitude": 37.61816500766354, "altitude_relative": 19.95179423091092, "heading": 3.0815500185168503, "speed": 9.945533002699984, "roll": -0.48130562892439166, "pitch": -0.4392832584119203, "battery_voltage": 16.794873553480205, "battery_current": 15.062054834435983, "battery_remaining_percent": 97.65, "gps_fix_type": 6, "gps_satellites_visible": 18}
{"timestamp": 1764248505, "flight_mode": "MISSION", "armed": true, "latitude": 55.756271685131594, "longitude": 37.61817142359715, "altitude_relative": 20.0815621828677, "heading": 3.0815500185168503, "speed": 10.170280154015122, "roll": -0.4113069497940963, "pitch": -0.06351718479627788, "battery_voltage": 16.79707187254411, "battery_current": 14.652674115159188, "battery_remaining_percent": 97.62, "gps_fix_type": 6, "gps_satellites_visible": 18}
{"timestamp": 1764248506, "flight_mode": "MISSION", "armed": true, "latitude": 55.75631440837472, "longitude": 37.61817862770144, "altitude_relative": 19.9451985771082, "heading": 3.0815500185168503, "speed": 9.907720897739322, "roll": -0.42447997185038056, "pitch": 0.19913269501421238, "battery_voltage": 16.798872014754686, "battery_current": 15.293116817854832, "battery_remaining_percent": 97.59, "gps_fix_type": 6, "gps_satellites_visible": 18}
{"timestamp": 1764248507, "flight_mode": "MISSION", "armed": true, "latitude": 55.75635364764698, "longitude": 37.618184382631945, "altitude_relative": 19.993276796763947, "heading": 3.0815500185168503, "speed": 10.143578274494459, "roll": -0.263437373177557, "pitch": 0.4126377229895215, "battery_voltage": 16.790515340981287, "battery_current": 14.599492278904327, "battery_remaining_percent": 97.56, "gps_fix_type": 6, "gps_satellites_visible": 18}
{"timestamp": 1764248508, "flight_mode": "MISSION", "armed": true, "latitude": 55.75638807241562, "longitude": 37.618190823121324, "altitude_relative": 20.0005516133233, "heading": 3.0815500185168503, "speed": 10.19916665788848, "roll": 0.09925430687341252, "pitch": 0.33948337523692274, "battery_voltage": 16.79782740373208, "battery_current": 14.934720796796048, "battery_remaining_percent": 97.53, "gps_fix_type": 6, "gps_satellites_visible": 18}
{"timestamp": 1764248509, "flight_mode": "MISSION", "armed": true, "latitude": 55.75641940778867, "longitude": 37.61819541760817, "altitude_relative": 19.934882550058507, "heading": 3.0815500185168503, "speed": 9.907124336958255, "roll": -0.05256715179857674, "pitch": 0.06522524747122871, "battery_voltage": 16.796732075053267, "battery_current": 14.547540447585718, "battery_remaining_percent": 97.5, "gps_fix_type": 6, "gps_satellites_visible": 18}
{"timestamp": 1764248510, "flight_mode": "MISSION", "armed": true, "latitude": 55.75644684919356, "longitude": 37.61823087820367, "altitude_relative": 20.055503556646205, "heading": 26.83379383075436, "speed": 9.810880020500822, "roll": 0.14178166227541922, "pitch": 0.04565498383026245, "battery_voltage": 16.79993099717421, "battery_current": 15.013842132845296, "battery_remaining_percent": 97.47, "gps_fix_type": 6, "gps_satellites_visible": 18}
{"timestamp": 1764248511, "flight_mode": "MISSION", "armed": true, "latitude": 55.75647151752075, "longitude": 37.618263771493, "altitude_relative": 20.077823915786173, "heading": 26.83379383075436, "speed": 9.981578627313827, "roll": 0.29248342565042174, "pitch": -0.4613509822028876, "battery_voltage": 16.791135082712394, "battery_current": 14.82459811293102, "battery_remaining_percent": 97.44, "gps_fix_type": 6, "gps_satellites_visible": 18}
{"timestamp": 1764248512, "flight_mode": "MISSION", "armed": true, "latitude": 55.756494160638645, "longitude": 37.61829285961144, "altitude_relative": 20.095551209453745, "heading": 26.83379383075436, "speed": 9.813171888583454, "roll": -0.35461887526153324, "pitch": 0.031965455266320775, "battery_voltage": 16.791233375918463, "battery_current": 14.76160442952121, "battery_remaining_percent": 97.41, "gps_fix_type": 6, "gps_satellites_visible": 18}
{"timestamp": 1764248513, "flight_mode": "MISSION", "armed": true, "latitude": 55.756514122225525, "longitude": 37.61831904121173, "altitude_relative": 19.960556312120005, "heading": 26.83379383075436, "speed": 10.132575417861394, "roll": -0.32793981902550107, "pitch": 0.04148713007452787, "battery_voltage": 16.793756235312685, "battery_current": 14.565648657654167, "battery_remaining_percent": 97.38, "gps_fix_type": 6, "gps_satellites_visible": 18}
{"timestamp": 1764248514, "flight_mode": "MISSION", "armed": true, "latitude": 55.7565327270204, "longitude": 37.618343488461186, "altitude_relative": 19.991912195859836, "heading": 26.83379383075436, "speed": 10.079450815544432, "roll": 0.2443235884956345, "pitch": 0.3731266028923884, "battery_voltage": 16.792335047839405, "battery_current": 14.888319628549674, "battery_remaining_percent": 97.35, "gps_fix_type": 6, "gps_satellites_visible": 18}
{"timestamp": 1764248515, "flight_mode": "MISSION", "armed": true, "latitude": 55.75654896886082, "longitude": 37.61836591682268, "altitude_relative": 19.983894725868485, "heading": 26.83379383075436, "speed": 10.070107732221869, "roll": -0.47573810207368294, "pitch": -0.35659427856921977, "battery_voltage": 16.795398964653387, "battery_current": 15.218578631253115, "battery_remaining_percent": 97.32, "gps_fix_type": 6, "gps_satellites_visible": 18}
{"timestamp": 1764248516, "flight_mode": "MISSION", "armed": true, "latitude": 55.756565259256256, "longitude": 37.618384432718294, "altitude_relative": 19.900309704911372, "heading": 26.83379383075436, "speed": 10.131681344603615, "roll": -0.08567649287712487, "pitch": -0.42643517432164013, "battery_voltage": 16.79480583399683, "battery_current": 14.738735721245392, "battery_remaining_percent": 97.28999999999999, "gps_fix_type": 6, "gps_satellites_visible": 18}
{"timestamp": 1764248517, "flight_mode": "MISSION", "armed": true, "latitude": 55.75657861618897, "longitude": 37.618401931183946, "altitude_relative": 20.07983589534956, "heading": 26.83379383075436, "speed": 9.936996029179825, "roll": 0.10043085597829249, "pitch": 0.2706090742527768, "battery_voltage": 16.79646718005483, "battery_current": 15.032450889162638, "battery_remaining_percent": 97.25999999999999, "gps_fix_type": 6, "gps_satellites_visible": 18}
{"timestamp": 1764248518, "flight_mode": "MISSION", "armed": true, "latitude": 55.756589139210426, "longitude": 37.6184177843266, "altitude_relative": 20.03645683990185, "heading": 26.83379383075436, "speed": 9.931567868794696, "roll": -0.15627240432781575, "pitch": -0.1061672819227466, "battery_voltage": 16.791946920103232, "battery_current": 14.956477886785894, "battery_remaining_percent": 97.22999999999999, "gps_fix_type": 6, "gps_satellites_visible": 18}
{"timestamp": 1764248519, "flight_mode": "MISSION", "armed": true, "latitude": 55.75660004265463, "longitude": 37.61843230116405, "altitude_relative": 20.068991137544256, "heading": 26.83379383075436, "speed": 10.044636170547012, "roll": 0.39197596852512806, "pitch": 0.05605877604328513, "battery_voltage": 16.793987076223118, "battery_current": 15.05336181421589, "battery_remaining_percent": 97.19999999999999, "gps_fix_type": 6, "gps_satellites_visible": 18}
{"timestamp": 1764248520, "flight_mode": "MISSION", "armed": true, "latitude": 55.75652052884772, "longitude": 37.61844411374205, "altitude_relative": 20.045642916655716, "heading": 158.12870464424316, "speed": 10.165230052268077, "roll": -0.022046198025871044, "pitch": -0.10054840884772098, "battery_voltage": 16.796875932601658, "battery_current": 14.861436086489489, "battery_remaining_percent": 97.16999999999999, "gps_fix_type": 6, "gps_satellites_visible": 18}
{"timestamp": 1764248521, "flight_mode": "MISSION", "armed": true, "latitude": 55.75644841056323, "longitude": 37.61845458473195, "altitude_relative": 19.922584645458347, "heading": 158.12870464424316, "speed": 9.918332110451093, "roll": -0.3719222226063823, "pitch": -0.10717947578086107, "battery_voltage": 16.795474991965882, "battery_current": 15.274939428294106, "battery_remaining_percent": 97.13999999999999, "gps_fix_type": 6, "gps_satellites_visible": 18}
{"timestamp": 1764248522, "flight_mode": "MISSION", "armed": true, "latitude": 55.756383736603915, "longitude": 37.61846621361798, "altitude_relative": 20.06659693573066, "heading": 158.12870464424316, "speed": 10.072531761254886, "roll": 0.12035179746912195, "pitch": -0.020985905036870256, "battery_voltage": 16.796034183826684, "battery_current": 14.954545756257541, "battery_remaining_percent": 97.10999999999999, "gps_fix_type": 6, "gps_satellites_visible": 18}
{"timestamp": 1764248523, "flight_mode": "MISSION", "armed": true, "latitude": 55.75632466299038, "longitude": 37.61847573922943, "altitude_relative": 20.069927023680105, "heading": 158.12870464424316, "speed": 9.833032623052704, "roll": -0.4597750211808491, "pitch": -0.45250075955311786, "battery_voltage": 16.79907357942412, "battery_current": 14.905373774027886, "battery_remaining_percent": 97.07999999999998, "gps_fix_type": 6, "gps_satellites_visible": 18}
{"timestamp": 1764248524, "flight_mode": "MISSION", "armed": true, "latitude": 55.75627289689084, "longitude": 37.61848241197555, "altitude_relative": 20.063151533627888, "heading": 158.12870464424316, "speed": 9.835797442579882, "roll": -0.33126814657543935, "pitch": 0.05627360817531979, "battery_voltage": 16.79921344187472, "battery_current": 14.968454645703906, "battery_remaining_percent": 97.04999999999998, "gps_fix_type": 6, "gps_satellites_visible": 18}
{"timestamp": 1764248525, "flight_mode": "MISSION", "armed": true, "latitude": 55.75622581298533, "longitude": 37.618490842721314, "altitude_relative": 20.08359477969829, "heading": 158.12870464424316, "speed": 9.996591602276936, "roll": -0.09412255231548172, "pitch": -0.07635181470372032, "battery_voltage": 16.794809474763895, "battery_current": 15.233183368953592, "battery_remaining_percent": 97.01999999999998, "gps_fix_type": 6, "gps_satellites_visible": 18}
{"timestamp": 1764248526, "flight_mode": "MISSION", "armed": true, "latitude": 55.75618236141821, "longitude": 37.61849831477719, "altitude_relative": 20.014085778486173, "heading": 158.12870464424316, "speed": 10.004609997530025, "roll": 0.2478227738996469, "pitch": -0.48345010079975137, "battery_voltage": 16.798098544410855, "battery_current": 15.19933802561284, "battery_remaining_percent": 96.98999999999998, "gps_fix_type": 6, "gps_satellites_visible": 18}
{"timestamp": 1764248527, "flight_mode": "MISSION", "armed": true, "latitude": 55.7561450609374, "longitude": 37.61850307469825, "altitude_relative": 19.94402958573459, "heading": 158.12870464424316, "speed": 9.985304288802988, "roll": -0.06995931611762174, "pitch": 0.14248502595025658, "battery_voltage": 16.792361721574945, "battery_current": 15.041372701083647, "battery_remaining_percent": 96.95999999999998, "gps_fix_type": 6, "gps_satellites_visible": 18}
{"timestamp": 1764248528, "flight_mode": "MISSION", "armed": true, "latitude": 55.756109850225556, "longitude": 37.61850807582403, "altitude_relative": 19.90592852570039, "heading": 158.12870464424316, "speed": 9.878960009326605, "roll": 0.06901501948871036, "pitch": -0.1281222015585326, "battery_voltage": 16.79409432330628, "battery_current": 15.314790162490489, "battery_remaining_percent": 96.92999999999998, "gps_fix_type": 6, "gps_satellites_visible": 18}
{"timestamp": 1764248529, "flight_mode": "MISSION", "armed": true, "latitude": 55.756079887464445, "longitude": 37.61851316321114, "altitude_relative": 19.925085078457005, "heading": 158.12870464424316, "speed": 9.84347910363611, "roll": -0.41231230785871653, "pitch": 0.22694744255270916, "battery_voltage": 16.796072976024238, "battery_current": 15.336673055883951, "battery_remaining_percent": 96.89999999999998, "gps_fix_type": 6, "gps_satellites_visible": 18}
{"timestamp": 1764248530, "flight_mode": "RTL", "armed": true, "latitude": 55.75605073659522, "longitude": 37.61842290131568, "altitude_relative": 19.942222995757696, "heading": 158.12870464424316, "speed": 4.917501339939253, "roll": -0.4249197982547971, "pitch": 0.09338806690754042, "battery_voltage": 16.798826670981704, "battery_current": 14.661296207581591, "battery_remaining_percent": 96.87999999999998, "gps_fix_type": 6, "gps_satellites_visible": 18}
{"timestamp": 1764248531, "flight_mode": "RTL", "armed": true, "latitude": 55.75602711792338, "longitude": 37.61834071389022, "altitude_relative": 19.977581830847395, "heading": 158.12870464424316, "speed": 4.972503470467741, "roll": -0.48546563300661627, "pitch": -0.128130886245033, "battery_voltage": 16.797081488483023, "battery_current": 14.611066712737315, "battery_remaining_percent": 96.85999999999999, "gps_fix_type": 6, "gps_satellites_visible": 18}
{"timestamp": 1764248532, "flight_mode": "RTL", "armed": true, "latitude": 55.756002831710134, "longitude": 37.618265578265564, "altitude_relative": 19.973165064655248, "heading": 158.12870464424316, "speed": 5.071549943974, "roll": 0.19634012909395282, "pitch": 0.00825591166088846, "battery_voltage": 16.79061338541891, "battery_current": 15.224156023578164, "battery_remaining_percent": 96.83999999999999, "gps_fix_type": 6, "gps_satellites_visible": 18}
{"timestamp": 1764248533, "flight_mode": "RTL", "armed": true, "latitude": 55.755982534915475, "longitude": 37.61819852846043, "altitude_relative": 20.03871091347324, "heading": 158.12870464424316, "speed": 4.993826771974794, "roll": -0.47718298285408534, "pitch": 0.2457790598219659, "battery_voltage": 16.79801520766939, "battery_current": 14.828941712005522, "battery_remaining_percent": 96.82, "gps_fix_type": 6, "gps_satellites_visible": 18}
{"timestamp": 1764248534, "flight_mode": "RTL", "armed": true, "latitude": 55.75596572694875, "longitude": 37.61813854926436, "altitude_relative": 20.08740651187372, "heading": 158.12870464424316, "speed": 5.149096120290434, "roll": -0.016935064002834843, "pitch": -0.0036004542948311347, "battery_voltage": 16.797237954089017, "battery_current": 14.737783345224992, "battery_remaining_percent": 96.8, "gps_fix_type": 6, "gps_satellites_visible": 18}
{"timestamp": 1764248535, "flight_mode": "RTL", "armed": true, "latitude": 55.75594771564071, "longitude": 37.61808587753506, "altitude_relative": 20.054677121264728, "heading": 158.12870464424316, "speed": 4.848987443979898, "roll": -0.2066021324446211, "pitch": -0.08565744592768987, "battery_voltage": 16.792013482074825, "battery_current": 15.21260242113125, "battery_remaining_percent": 96.78, "gps_fix_type": 6, "gps_satellites_visible": 18}
{"timestamp": 1764248536, "flight_mode": "RTL", "armed": true, "latitude": 55.75593281020276, "longitude": 37.618036036389555, "altitude_relative": 19.92607129172868, "heading": 158.12870464424316, "speed": 4.96683616411224, "roll": 0.08311696936589197, "pitch": 0.02487899673014038, "battery_voltage": 16.795541521659345, "battery_current": 14.908515282574214, "battery_remaining_percent": 96.76, "gps_fix_type": 6, "gps_satellites_visible": 18}
{"timestamp": 1764248537, "flight_mode": "RTL", "armed": true, "latitude": 55.755920601072305, "longitude": 37.61799302279637, "altitude_relative": 20.075715876196185, "heading": 158.12870464424316, "speed": 5.030007133678701, "roll": -0.47751678674567277, "pitch": 0.3560193618735371, "battery_voltage": 16.795361643596472, "battery_current": 15.312512734514316, "battery_remaining_percent": 96.74000000000001, "gps_fix_type": 6, "gps_satellites_visible": 18}
{"timestamp": 1764248538, "flight_mode": "RTL", "armed": true, "latitude": 55.75590768532729, "longitude": 37.617953819630884, "altitude_relative": 19.99972649155856, "heading": 158.12870464424316, "speed": 4.807288559063105, "roll": -0.4252912471161603, "pitch": 0.3532556105737201, "battery_voltage": 16.790996872414546, "battery_current": 15.226485162541213, "battery_remaining_percent": 96.72000000000001, "gps_fix_type": 6, "gps_satellites_visible": 18}
{"timestamp": 1764248539, "flight_mode": "RTL", "armed": true, "latitude": 55.75589722351457, "longitude": 37.61791762546444, "altitude_relative": 20.02531423865543, "heading": 158.12870464424316, "speed": 5.13607994923386, "roll": 0.11917097658022158, "pitch": 0.11503288278834434, "battery_voltage": 16.79785186596982, "battery_current": 14.692860143156436, "battery_remaining_percent": 96.70000000000002, "gps_fix_type": 6, "gps_satellites_visible": 18}
{"timestamp": 1764248540, "flight_mode": "RTL", "armed": true, "latitude": 55.7558873670095, "longitude": 37.617887657523134, "altitude_relative": 20.039962191213505, "heading": 158.12870464424316, "speed": 5.046833223667975, "roll": 0.018056391809936678, "pitch": -0.2384329342695778, "battery_voltage": 16.790255900030687, "battery_current": 14.666837042736427, "battery_remaining_percent": 96.68000000000002, "gps_fix_type": 6, "gps_satellites_visible": 18}
{"timestamp": 1764248541, "flight_mode": "RTL", "armed": true, "latitude": 55.75587939809415, "longitude": 37.617857211059565, "altitude_relative": 20.089151121095448, "heading": 158.12870464424316, "speed": 5.050758410913104, "roll": 0.03325471174037142, "pitch": 0.017760368450513542, "battery_voltage": 16.799486951769413, "battery_current": 14.763456201933225, "battery_remaining_percent": 96.66000000000003, "gps_fix_type": 6, "gps_satellites_visible": 18}
{"timestamp": 1764248542, "flight_mode": "RTL", "armed": true, "latitude": 55.755870528271046, "longitude": 37.617832658806115, "altitude_relative": 20.032869272799942, "heading": 158.12870464424316, "speed": 4.92558467938867, "roll": 0.23575465162111808, "pitch": -0.16448608918746044, "battery_voltage": 16.799319690585403, "battery_current": 15.377778172948872, "battery_remaining_percent": 96.64000000000003, "gps_fix_type": 6, "gps_satellites_visible": 18}
{"timestamp": 1764248543, "flight_mode": "RTL", "armed": true, "latitude": 55.75586469139511, "longitude": 37.61780835147697, "altitude_relative": 20.014737368224203, "heading": 158.12870464424316, "speed": 4.845660181102643, "roll": 0.2750556648271516, "pitch": -0.22180086339508553, "battery_voltage": 16.793287157630647, "battery_current": 14.780545682665213, "battery_remaining_percent": 96.62000000000003, "gps_fix_type": 6, "gps_satellites_visible": 18}
{"timestamp": 1764248544, "flight_mode": "RTL", "armed": true, "latitude": 55.75585842084678, "longitude": 37.6177871394804, "altitude_relative": 20.015096704411526, "heading": 158.12870464424316, "speed": 4.957458491595679, "roll": 0.05933763540162951, "pitch": 0.20844506882456326, "battery_voltage": 16.796978974669514, "battery_current": 14.820878846404332, "battery_remaining_percent": 96.60000000000004, "gps_fix_type": 6, "gps_satellites_visible": 18}
{"timestamp": 1764248545, "flight_mode": "RTL", "armed": true, "latitude": 55.75585234849126, "longitude": 37.61776896390887, "altitude_relative": 20.0473301171895, "heading": 158.12870464424316, "speed": 4.985303964293144, "roll": -0.1512763002839559, "pitch": -0.14115055315502567, "battery_voltage": 16.79089460548967, "battery_current": 15.273307912995985, "battery_remaining_percent": 96.58000000000004, "gps_fix_type": 6, "gps_satellites_visible": 18}
{"timestamp": 1764248546, "flight_mode": "RTL", "armed": true, "latitude": 55.75584746007697, "longitude": 37.61775246404143, "altitude_relative": 20.04715957780004, "heading": 158.12870464424316, "speed": 5.139294572998169, "roll": 0.3890147140457342, "pitch": -0.34344426613262413, "battery_voltage": 16.799814276875658, "battery_current": 15.179346059129362, "battery_remaining_percent": 96.56000000000004, "gps_fix_type": 6, "gps_satellites_visible": 18}
{"timestamp": 1764248547, "flight_mode": "RTL", "armed": true, "latitude": 55.75584242963287, "longitude": 37.61773702358213, "altitude_relative": 20.081976486175602, "heading": 158.12870464424316, "speed": 5.1239747009731005, "roll": 0.2992979783438501, "pitch": -0.09094706161348565, "battery_voltage": 16.79205899127747, "battery_current": 15.103708638087493, "battery_remaining_percent": 96.54000000000005, "gps_fix_type": 6, "gps_satellites_visible": 18}
{"timestamp": 1764248548, "flight_mode": "RTL", "armed": true, "latitude": 55.755838432978095, "longitude": 37.61772430681686, "altitude_relative": 19.93213581091966, "heading": 158.12870464424316, "speed": 4.912597308113229, "roll": -0.28240056987040885, "pitch": -0.2935461900954852, "battery_voltage": 16.79821740756388, "battery_current": 15.113538268610682, "battery_remaining_percent": 96.52000000000005, "gps_fix_type": 6, "gps_satellites_visible": 18}
{"timestamp": 1764248549, "flight_mode": "RTL", "armed": true, "latitude": 55.75583347429474, "longitude": 37.617711106203245, "altitude_relative": 19.952738144815694, "heading": 158.12870464424316, "speed": 4.941611107590929, "roll": -0.43843719728844854, "pitch": 0.28615381882439794, "battery_voltage": 16.79544911356725, "battery_current": 15.32089928247251, "battery_remaining_percent": 96.50000000000006, "gps_fix_type": 6, "gps_satellites_visible": 18}
{"timestamp": 1764248550, "flight_mode": "LAND", "armed": true, "latitude": 55.75583394809389, "longitude": 37.61771008966224, "altitude_relative": 19.07691291460379, "heading": 158.12870464424316, "speed": 4.917440895910737, "roll": 0.15414777057582763, "pitch": -0.32586176179698, "battery_voltage": 16.7995876112352, "battery_current": 4.730850568808965, "battery_remaining_percent": 96.49000000000005, "gps_fix_type": 6, "gps_satellites_visible": 18}
{"timestamp": 1764248551, "flight_mode": "LAND", "armed": true, "latitude": 55.75583491055393, "longitude": 37.61771059028149, "altitude_relative": 18.02755804347355, "heading": 158.12870464424316, "speed": 5.194467648129384, "roll": 0.3013435335559881, "pitch": 0.27476657066686394, "battery_voltage": 16.794393949770814, "battery_current": 4.823188602522991, "battery_remaining_percent": 96.48000000000005, "gps_fix_type": 6, "gps_satellites_visible": 18}
{"timestamp": 1764248552, "flight_mode": "LAND", "armed": true, "latitude": 55.755834637346325, "longitude": 37.61771110482346, "altitude_relative": 17.01178912600535, "heading": 158.12870464424316, "speed": 5.146831736353711, "roll": -0.40534939176525486, "pitch": -0.49422464468533933, "battery_voltage": 16.791333824552144, "battery_current": 4.574540052554605, "battery_remaining_percent": 96.47000000000004, "gps_fix_type": 6, "gps_satellites_visible": 18}
{"timestamp": 1764248553, "flight_mode": "LAND", "armed": true, "latitude": 55.75583300823708, "longitude": 37.617711866053206, "altitude_relative": 15.914132851298112, "heading": 158.12870464424316, "speed": 4.960664466958807, "roll": -0.12856013363308683, "pitch": 0.00828281542550191, "battery_voltage": 16.796619031079526, "battery_current": 5.030953926025175, "battery_remaining_percent": 96.46000000000004, "gps_fix_type": 6, "gps_satellites_visible": 18}
{"timestamp": 1764248554, "flight_mode": "LAND", "armed": true, "latitude": 55.75583393785738, "longitude": 37.617710165758965, "altitude_relative": 15.02890766384901, "heading": 158.12870464424316, "speed": 5.073577197994479, "roll": 0.22380707249345877, "pitch": 0.11255451766151192, "battery_voltage": 16.799608106497917, "battery_current": 5.4666823898694545, "battery_remaining_percent": 96.45000000000003, "gps_fix_type": 6, "gps_satellites_visible": 18}
{"timestamp": 1764248555, "flight_mode": "LAND", "armed": true, "latitude": 55.75583330075806, "longitude": 37.61771104056614, "altitude_relative": 14.096994546741339, "heading": 158.12870464424316, "speed": 5.084669695661763, "roll": 0.32644232345182267, "pitch": 0.12393707711862811, "battery_voltage": 16.790966924724977, "battery_current": 5.485797418709364, "battery_remaining_percent": 96.44000000000003, "gps_fix_type": 6, "gps_satellites_visible": 18}
{"timestamp": 1764248556, "flight_mode": "LAND", "armed": true, "latitude": 55.755833994045275, "longitude": 37.617711514412704, "altitude_relative": 13.012210609056282, "heading": 158.12870464424316, "speed": 4.940326935233301, "roll": -0.23209550359288078, "pitch": -0.19501499133947253, "battery_voltage": 16.797118956144676, "battery_current": 5.1531265310669, "battery_remaining_percent": 96.43000000000002, "gps_fix_type": 6, "gps_satellites_visible": 18}
{"timestamp": 1764248557, "flight_mode": "LAND", "armed": true, "latitude": 55.75583466881008, "longitude": 37.61771107671476, "altitude_relative": 12.085312063486752, "heading": 158.12870464424316, "speed": 5.120355295170874, "roll": -0.14848289817226268, "pitch": 0.16230873157962067, "battery_voltage": 16.79056855358012, "battery_current": 4.911783455371989, "battery_remaining_percent": 96.42000000000002, "gps_fix_type": 6, "gps_satellites_visible": 18}
{"timestamp": 1764248558, "flight_mode": "LAND", "armed": true, "latitude": 55.75583304242345, "longitude": 37.61771120917852, "altitude_relative": 11.00370705727929, "heading": 158.12870464424316, "speed": 4.884863384947148, "roll": -0.47468345696090486, "pitch": -0.47966195833327396, "battery_voltage": 16.793701341450006, "battery_current": 5.030653888983753, "battery_remaining_percent": 96.41000000000001, "gps_fix_type": 6, "gps_satellites_visible": 18}
{"timestamp": 1764248559, "flight_mode": "LAND", "armed": true, "latitude": 55.75583345827714, "longitude": 37.61771018486798, "altitude_relative": 9.940970071182326, "heading": 158.12870464424316, "speed": 4.828049985424771, "roll": 0.3325441614555459, "pitch": 0.24877267602856, "battery_voltage": 16.798544677867074, "battery_current": 5.35004874209991, "battery_remaining_percent": 96.4, "gps_fix_type": 6, "gps_satellites_visible": 18}
{"timestamp": 1764248560, "flight_mode": "LAND", "armed": true, "latitude": 55.75583461898789, "longitude": 37.61771121082068, "altitude_relative": 8.944839294614328, "heading": 158.12870464424316, "speed": 4.8267209346983, "roll": 0.07440782373029031, "pitch": 0.05164815556604618, "battery_voltage": 16.7973844812987, "battery_current": 4.56981916078605, "battery_remaining_percent": 96.39, "gps_fix_type": 6, "gps_satellites_visible": 18}
{"timestamp": 1764248561, "flight_mode": "LAND", "armed": true, "latitude": 55.755833062633236, "longitude": 37.61771023947093, "altitude_relative": 7.979139269308557, "heading": 158.12870464424316, "speed": 5.155275635681795, "roll": -0.17396710956669037, "pitch": 0.19687007242499766, "battery_voltage": 16.793328522468936, "battery_current": 5.071783181828132, "battery_remaining_percent": 96.38, "gps_fix_type": 6, "gps_satellites_visible": 18}
{"timestamp": 1764248562, "flight_mode": "LAND", "armed": true, "latitude": 55.75583407443104, "longitude": 37.617710154995706, "altitude_relative": 6.921133155366342, "heading": 158.12870464424316, "speed": 4.868288835052489, "roll": -0.25976349841273927, "pitch": -0.012407294549023007, "battery_voltage": 16.793945128861964, "battery_current": 4.819654021717443, "battery_remaining_percent": 96.36999999999999, "gps_fix_type": 6, "gps_satellites_visible": 18}
{"timestamp": 1764248563, "flight_mode": "LAND", "armed": true, "latitude": 55.75583458458073, "longitude": 37.61771110132418, "altitude_relative": 6.057333338449235, "heading": 158.12870464424316, "speed": 4.842978357742106, "roll": 0.2687120390715969, "pitch": -0.29389986395542367, "battery_voltage": 16.797299362827452, "battery_current": 4.517450886315742, "battery_remaining_percent": 96.35999999999999, "gps_fix_type": 6, "gps_satellites_visible": 18}
{"timestamp": 1764248564, "flight_mode": "LAND", "armed": true, "latitude": 55.75583410090904, "longitude": 37.61771067728165, "altitude_relative": 5.087056167306977, "heading": 158.12870464424316, "speed": 5.131134464721709, "roll": -0.40104844159641306, "pitch": -0.10226445921660254, "battery_voltage": 16.792722035036235, "battery_current": 4.821231879237884, "battery_remaining_percent": 96.34999999999998, "gps_fix_type": 6, "gps_satellites_visible": 18}
{"timestamp": 1764248565, "flight_mode": "LAND", "armed": true, "latitude": 55.7558339076565, "longitude": 37.61771113193516, "altitude_relative": 4.097322704202112, "heading": 158.12870464424316, "speed": 5.159547021860191, "roll": 0.2104690093353584, "pitch": 0.36766404352236925, "battery_voltage": 16.793731957265678, "battery_current": 5.323162217157022, "battery_remaining_percent": 96.33999999999997, "gps_fix_type": 6, "gps_satellites_visible": 18}
{"timestamp": 1764248566, "flight_mode": "LAND", "armed": true, "latitude": 55.75583303172102, "longitude": 37.617710813853485, "altitude_relative": 3.0446677442352312, "heading": 158.12870464424316, "speed": 5.00388303943188, "roll": 0.05788220223522855, "pitch": 0.03316914060736931, "battery_voltage": 16.79535283877902, "battery_current": 5.033724535076294, "battery_remaining_percent": 96.32999999999997, "gps_fix_type": 6, "gps_satellites_visible": 18}
{"timestamp": 1764248567, "flight_mode": "LAND", "armed": true, "latitude": 55.755833604744765, "longitude": 37.617711023558016, "altitude_relative": 2.026406005935496, "heading": 158.12870464424316, "speed": 5.192398091450417, "roll": -0.3590692938974246, "pitch": 0.07421059298200428, "battery_voltage": 16.79080691877455, "battery_current": 4.8662608016135, "battery_remaining_percent": 96.31999999999996, "gps_fix_type": 6, "gps_satellites_visible": 18}
{"timestamp": 1764248568, "flight_mode": "LAND", "armed": true, "latitude": 55.755834754895105, "longitude": 37.61771125353481, "altitude_relative": 0.9730417571059362, "heading": 158.12870464424316, "speed": 5.093903824473093, "roll": -0.344388121070484, "pitch": -0.0017452685069823115, "battery_voltage": 16.792521114567425, "battery_current": 5.337985474572716, "battery_remaining_percent": 96.30999999999996, "gps_fix_type": 6, "gps_satellites_visible": 18}
{"timestamp": 1764248569, "flight_mode": "LAND", "armed": true, "latitude": 55.75583400834222, "longitude": 37.6177112077955, "altitude_relative": 0.07969102107499967, "heading": 158.12870464424316, "speed": 5.140265822612941, "roll": -0.4713269158450607, "pitch": 0.41968833632911373, "battery_voltage": 16.797571579222076, "battery_current": 4.97953321123088, "battery_remaining_percent": 96.29999999999995, "gps_fix_type": 6, "gps_satellites_visible": 18}
{"timestamp": 1764248689, "flight_mode": "STABILIZED", "armed": true, "latitude": 55.75579924712648, "longitude": 37.61760078541201, "altitude_relative": 2.0472229536815933, "heading": 90, "speed": 0, "roll": 0.055947239147261185, "pitch": 0.028699857291214603, "battery_voltage": 16.79061789245451, "battery_current": 24.714160455915167, "battery_remaining_percent": 99.92, "gps_fix_type": 6, "gps_satellites_visible": 18}
