{"timestamp": 1764248440, "flight_mode": "TAKEOFF", "armed": true, "latitude": 55.7557994139855, "longitude": 37.617600536306924, "altitude_relative": 0.9303578940826343, "heading": 0, "speed": 0, "roll": 0.2770151043500838, "pitch": 0.23764009170394518, "battery_voltage": 16.79232952309179, "battery_current": 19.687566835911372, "battery_remaining_percent": 99.95, "gps_fix_type": 6, "gps_satellites_visible": 18}
{"timestamp": 1764248440, "flight_mode": "TAKEOFF", "armed": true, "latitude": 55.7557994139855, "longitude": 37.617600536306924, "altitude_relative": 0.9303578940826343, "heading": 0, "speed": 0, "roll": 0.2770151043500838, "pitch": 0.23764009170394518, "battery_voltage": 16.79232952309179, "battery_current": 19.687566835911372, "battery_remaining_percent": 99.95, "gps_fix_type": 6, "gps_satellites_visible": 18}
{"timestamp": 1764248440, "flight_mode": "TAKEOFF", "armed": true, "latitude": 55.75579962559911, "longitude": 37.61760024794235, "altitude_relative": 1.1419582294866548, "heading": 0, "speed": 0.03484239885707576, "roll": 0.1442726468109329, "pitch": 0.152975373586233, "battery_voltage": 16.793441988720176, "battery_current": 19.792843528351973, "battery_remaining_percent": 99.94, "gps_fix_type": 6, "gps_satellites_visible": 18}
{"timestamp": 1764248440, "flight_mode": "TAKEOFF", "armed": true, "latitude": 55.75579962559911, "longitude": 37.61760024794235, "altitude_relative": 1.1419582294866548, "heading": 0, "speed": 0.03484239885707576, "roll": 0.1442726468109329, "pitch": 0.152975373586233, "battery_voltage": 16.793441988720176, "battery_current": 19.792843528351973, "battery_remaining_percent": 99.94, "gps_fix_type": 6, "gps_satellites_visible": 18}
{"timestamp": 1764248440, "flight_mode": "TAKEOFF", "armed": true, "latitude": 55.75579983721272, "longitude": 37.617599959577774, "altitude_relative": 1.3535585648906756, "heading": 0, "speed": 0.06968479771415152, "roll": 0.01153018927178201, "pitch": 0.06831065546852083, "battery_voltage": 16.79455445434856, "battery_current": 19.898120220792574, "battery_remaining_percent": 99.93, "gps_fix_type": 6, "gps_satellites_visible": 18}
{"timestamp": 1764248440, "flight_mode": "TAKEOFF", "armed": true, "latitude": 55.75579983721272, "longitude": 37.617599959577774, "altitude_relative": 1.3535585648906756, "heading": 0, "speed": 0.06968479771415152, "roll": 0.01153018927178201, "pitch": 0.06831065546852083, "battery_voltage": 16.79455445434856, "battery_current": 19.898120220792574, "battery_remaining_percent": 99.93, "gps_fix_type": 6, "gps_satellites_visible": 18}
{"timestamp": 1764248440, "flight_mode": "TAKEOFF", "armed": true, "latitude": 55.75580004882633, "longitude": 37.617599671213206, "altitude_relative": 1.5651589002946962, "heading": 0, "speed": 0.10452719657122729, "roll": -0.12121226826736892, "pitch": -0.016354062649191314, "battery_voltage": 16.795666919976945, "battery_current": 20.00339691323317, "battery_remaining_percent": 99.92, "gps_fix_type": 6, "gps_satellites_visible": 18}
{"timestamp": 1764248440, "flight_mode": "TAKEOFF", "armed": true, "latitude": 55.75580004882633, "longitude": 37.617599671213206, "altitude_relative": 1.5651589002946962, "heading": 0, "speed": 0.10452719657122729, "roll": -0.12121226826736892, "pitch": -0.016354062649191314, "battery_voltage": 16.795666919976945, "battery_current": 20.00339691323317, "battery_remaining_percent": 99.92, "gps_fix_type": 6, "gps_satellites_visible": 18}
{"timestamp": 1764248440, "flight_mode": "TAKEOFF", "armed": true, "latitude": 55.75580026043994, "longitude": 37.61759938284863, "altitude_relative": 1.776759235698717, "heading": 0, "speed": 0.13936959542830304, "roll": -0.2539547258065198, "pitch": -0.10101878076690352, "battery_voltage": 16.79677938560533, "battery_current": 20.108673605673772, "battery_remaining_percent": 99.91000000000001, "gps_fix_type": 6, "gps_satellites_visible": 18}
{"timestamp": 1764248440, "flight_mode": "TAKEOFF", "armed": true, "latitude": 55.75580026043994, "longitude": 37.61759938284863, "altitude_relative": 1.776759235698717, "heading": 0, "speed": 0.13936959542830304, "roll": -0.2539547258065198, "pitch": -0.10101878076690352, "battery_voltage": 16.79677938560533, "battery_current": 20.108673605673772, "battery_remaining_percent": 99.91000000000001, "gps_fix_type": 6, "gps_satellites_visible": 18}
{"timestamp": 1764248440.2, "flight_mode": "TAKEOFF", "armed": true, "latitude": 55.755800302762665, "longitude": 37.61759932517572, "altitude_relative": 1.8190793027795211, "heading": 0, "speed": 0.1463380751997182, "roll": -0.28050321731434996, "pitch": -0.11795172439044595, "battery_voltage": 16.797001878731006, "battery_current": 20.129728944161894, "battery_remaining_percent": 99.90800000000002, "gps_fix_type": 6, "gps_satellites_visible": 18}
{"timestamp": 1764248440.4, "flight_mode": "TAKEOFF", "armed": true, "latitude": 55.75580034508538, "longitude": 37.617599267502804, "altitude_relative": 1.8613993698603253, "heading": 0, "speed": 0.15330655497113335, "roll": -0.30705170882218014, "pitch": -0.13488466801398838, "battery_voltage": 16.797224371856682, "battery_current": 20.15078428265001, "battery_remaining_percent": 99.906, "gps_fix_type": 6, "gps_satellites_visible": 18}
{"timestamp": 1764248440.6, "flight_mode": "TAKEOFF", "armed": true, "latitude": 55.75580038740811, "longitude": 37.61759920982988, "altitude_relative": 1.9037194369411292, "heading": 0, "speed": 0.1602750347425485, "roll": -0.33360020033001037, "pitch": -0.1518176116375308, "battery_voltage": 16.797446864982362, "battery_current": 20.171839621138133, "battery_remaining_percent": 99.90400000000001, "gps_fix_type": 6, "gps_satellites_visible": 18}
{"timestamp": 1764248440.8, "flight_mode": "TAKEOFF", "armed": true, "latitude": 55.755800429730826, "longitude": 37.61759915215697, "altitude_relative": 1.9460395040219334, "heading": 0, "speed": 0.16724351451396366, "roll": -0.36014869183784054, "pitch": -0.16875055526107324, "battery_voltage": 16.79766935810804, "battery_current": 20.19289495962625, "battery_remaining_percent": 99.902, "gps_fix_type": 6, "gps_satellites_visible": 18}
{"timestamp": 1764248441, "flight_mode": "TAKEOFF", "armed": true, "latitude": 55.75580047205355, "longitude": 37.617599094484056, "altitude_relative": 1.9883595711027375, "heading": 0, "speed": 0.1742119942853788, "roll": -0.3866971833456707, "pitch": -0.18568349888461566, "battery_voltage": 16.797891851233715, "battery_current": 20.213950298114373, "battery_remaining_percent": 99.9, "gps_fix_type": 6, "gps_satellites_visible": 18}
{"timestamp": 1764248441, "flight_mode": "TAKEOFF", "armed": true, "latitude": 55.75580047205355, "longitude": 37.617599094484056, "altitude_relative": 1.9883595711027375, "heading": 0, "speed": 0.1742119942853788, "roll": -0.3866971833456707, "pitch": -0.18568349888461566, "battery_voltage": 16.797891851233715, "battery_current": 20.213950298114373, "battery_remaining_percent": 99.9, "gps_fix_type": 6, "gps_satellites_visible": 18}
{"timestamp": 1764248441, "flight_mode": "TAKEOFF", "armed": true, "latitude": 55.75580033196802, "longitude": 37.61759940183373, "altitude_relative": 2.2097722605784096, "heading": 0, "speed": 0.13936959542830304, "roll": -0.27837603512454223, "pitch": -0.04896905119653763, "battery_voltage": 16.79804038922736, "battery_current": 20.1858607649895, "battery_remaining_percent": 99.89, "gps_fix_type": 6, "gps_satellites_visible": 18}
{"timestamp": 1764248441, "flight_mode": "TAKEOFF", "armed": true, "latitude": 55.75580033196802, "longitude": 37.61759940183373, "altitude_relative": 2.2097722605784096, "heading": 0, "speed": 0.13936959542830304, "roll": -0.27837603512454223, "pitch": -0.04896905119653763, "battery_voltage": 16.79804038922736, "battery_current": 20.1858607649895, "battery_remaining_percent": 99.89, "gps_fix_type": 6, "gps_satellites_visible": 18}
{"timestamp": 1764248441, "flight_mode": "TAKEOFF", "armed": true, "latitude": 55.75580019188248, "longitude": 37.6175997091834, "altitude_relative": 2.4311849500540816, "heading": 0, "speed": 0.10452719657122729, "roll": -0.17005488690341375, "pitch": 0.0877453964915404, "battery_voltage": 16.798188927221005, "battery_current": 20.15777123186463, "battery_remaining_percent": 99.88000000000001, "gps_fix_type": 6, "gps_satellites_visible": 18}
{"timestamp": 1764248441, "flight_mode": "TAKEOFF", "armed": true, "latitude": 55.75580019188248, "longitude": 37.6175997091834, "altitude_relative": 2.4311849500540816, "heading": 0, "speed": 0.10452719657122729, "roll": -0.17005488690341375, "pitch": 0.0877453964915404, "battery_voltage": 16.798188927221005, "battery_current": 20.15777123186463, "battery_remaining_percent": 99.88000000000001, "gps_fix_type": 6, "gps_satellites_visible": 18}
{"timestamp": 1764248441, "flight_mode": "TAKEOFF", "armed": true, "latitude": 55.755800051796946, "longitude": 37.61760001653307, "altitude_relative": 2.6525976395297532, "heading": 0, "speed": 0.06968479771415152, "roll": -0.061733738682285266, "pitch": 0.22445984417961845, "battery_voltage": 16.798337465214654, "battery_current": 20.129681698739756, "battery_remaining_percent": 99.87, "gps_fix_type": 6, "gps_satellites_visible": 18}
{"timestamp": 1764248441, "flight_mode": "TAKEOFF", "armed": true, "latitude": 55.755800051796946, "longitude": 37.61760001653307, "altitude_relative": 2.6525976395297532, "heading": 0, "speed": 0.06968479771415152, "roll": -0.061733738682285266, "pitch": 0.22445984417961845, "battery_voltage": 16.798337465214654, "battery_current": 20.129681698739756, "battery_remaining_percent": 99.87, "gps_fix_type": 6, "gps_satellites_visible": 18}
{"timestamp": 1764248441, "flight_mode": "TAKEOFF", "armed": true, "latitude": 55.75579991171141, "longitude": 37.61760032388274, "altitude_relative": 2.8740103290054253, "heading": 0, "speed": 0.03484239885707577, "roll": 0.046587409538843216, "pitch": 0.36117429186769645, "battery_voltage": 16.7984860032083, "battery_current": 20.101592165614885, "battery_remaining_percent": 99.86000000000001, "gps_fix_type": 6, "gps_satellites_visible": 18}
{"timestamp": 1764248441, "flight_mode": "TAKEOFF", "armed": true, "latitude": 55.75579991171141, "longitude": 37.61760032388274, "altitude_relative": 2.8740103290054253, "heading": 0, "speed": 0.03484239885707577, "roll": 0.046587409538843216, "pitch": 0.36117429186769645, "battery_voltage": 16.7984860032083, "battery_current": 20.101592165614885, "battery_remaining_percent": 99.86000000000001, "gps_fix_type": 6, "gps_satellites_visible": 18}
{"timestamp": 1764248441.2, "flight_mode": "TAKEOFF", "armed": true, "latitude": 55.7557998836943, "longitude": 37.617600385352674, "altitude_relative": 2.91829286690056, "heading": 0, "speed": 0.027873919085660614, "roll": 0.06825163918306891, "pitch": 0.38851718140531205, "battery_voltage": 16.798515710807028, "battery_current": 20.095974258989912, "battery_remaining_percent": 99.85800000000002, "gps_fix_type": 6, "gps_satellites_visible": 18}
{"timestamp": 1764248441.4, "flight_mode": "TAKEOFF", "armed": true, "latitude": 55.755799855677196, "longitude": 37.61760044682261, "altitude_relative": 2.962575404795694, "heading": 0, "speed": 0.02090543931424546, "roll": 0.0899158688272946, "pitch": 0.41586007094292765, "battery_voltage": 16.79854541840576, "battery_current": 20.090356352364935, "battery_remaining_percent": 99.85600000000001, "gps_fix_type": 6, "gps_satellites_visible": 18}
{"timestamp": 1764248441.6, "flight_mode": "TAKEOFF", "armed": true, "latitude": 55.755799827660084, "longitude": 37.61760050829255, "altitude_relative": 3.0068579426908286, "heading": 0, "speed": 0.013936959542830307, "roll": 0.1115800984715203, "pitch": 0.4432029604805433, "battery_voltage": 16.798575126004486, "battery_current": 20.084738445739962, "battery_remaining_percent": 99.85400000000001, "gps_fix_type": 6, "gps_satellites_visible": 18}
{"timestamp": 1764248441.8, "flight_mode": "TAKEOFF", "armed": true, "latitude": 55.75579979964298, "longitude": 37.61760056976248, "altitude_relative": 3.0511404805859628, "heading": 0, "speed": 0.006968479771415154, "roll": 0.133244328115746, "pitch": 0.4705458500181589, "battery_voltage": 16.798604833603218, "battery_current": 20.079120539114985, "battery_remaining_percent": 99.852, "gps_fix_type": 6, "gps_satellites_visible": 18}
{"timestamp": 1764248442, "flight_mode": "TAKEOFF", "armed": true, "latitude": 55.755799771625874, "longitude": 37.61760063123241, "altitude_relative": 3.0954230184810974, "heading": 0, "speed": 0, "roll": 0.1549085577599717, "pitch": 0.4978887395557745, "battery_voltage": 16.798634541201945, "battery_current": 20.073502632490012, "battery_remaining_percent": 99.85000000000001, "gps_fix_type": 6, "gps_satellites_visible": 18}
{"timestamp": 1764248442, "flight_mode": "TAKEOFF", "armed": true, "latitude": 55.755799771625874, "longitude": 37.61760063123241, "altitude_relative": 3.0954230184810974, "heading": 0, "speed": 0, "roll": 0.1549085577599717, "pitch": 0.4978887395557745, "battery_voltage": 16.798634541201945, "battery_current": 20.073502632490012, "battery_remaining_percent": 99.85000000000001, "gps_fix_type": 6, "gps_satellites_visible": 18}
{"timestamp": 1764248442, "flight_mode": "TAKEOFF", "armed": true, "latitude": 55.75579997078686, "longitude": 37.61760070229449, "altitude_relative": 3.2756902620691464, "heading": 0, "speed": 0.025683313922269024, "roll": 0.06998753056819422, "pitch": 0.31071048078011165, "battery_voltage": 16.79772826145911, "battery_current": 20.11701167525104, "battery_remaining_percent": 99.84, "gps_fix_type": 6, "gps_satellites_visible": 18}
{"timestamp": 1764248442, "flight_mode": "TAKEOFF", "armed": true, "latitude": 55.75579997078686, "longitude": 37.61760070229449, "altitude_relative": 3.2756902620691464, "heading": 0, "speed": 0.025683313922269024, "roll": 0.06998753056819422, "pitch": 0.31071048078011165, "battery_voltage": 16.79772826145911, "battery_current": 20.11701167525104, "battery_remaining_percent": 99.84, "gps_fix_type": 6, "gps_satellites_visible": 18}
{"timestamp": 1764248442, "flight_mode": "TAKEOFF", "armed": true, "latitude": 55.75580016994785, "longitude": 37.61760077335657, "altitude_relative": 3.4559575056571954, "heading": 0, "speed": 0.05136662784453805, "roll": -0.014933496623583259, "pitch": 0.1235322220044488, "battery_voltage": 16.796821981716274, "battery_current": 20.160520718012066, "battery_remaining_percent": 99.83000000000001, "gps_fix_type": 6, "gps_satellites_visible": 18}
{"timestamp": 1764248442, "flight_mode": "TAKEOFF", "armed": true, "latitude": 55.75580016994785, "longitude": 37.61760077335657, "altitude_relative": 3.4559575056571954, "heading": 0, "speed": 0.05136662784453805, "roll": -0.014933496623583259, "pitch": 0.1235322220044488, "battery_voltage": 16.796821981716274, "battery_current": 20.160520718012066, "battery_remaining_percent": 99.83000000000001, "gps_fix_type": 6, "gps_satellites_visible": 18}
{"timestamp": 1764248442, "flight_mode": "TAKEOFF", "armed": true, "latitude": 55.75580036910883, "longitude": 37.61760084441865, "altitude_relative": 3.636224749245244, "heading": 0, "speed": 0.07704994176680707, "roll": -0.0998545238153607, "pitch": -0.06364603677121394, "battery_voltage": 16.795915701973435, "battery_current": 20.204029760773093, "battery_remaining_percent": 99.82000000000001, "gps_fix_type": 6, "gps_satellites_visible": 18}
{"timestamp": 1764248442, "flight_mode": "TAKEOFF", "armed": true, "latitude": 55.75580036910883, "longitude": 37.61760084441865, "altitude_relative": 3.636224749245244, "heading": 0, "speed": 0.07704994176680707, "roll": -0.0998545238153607, "pitch": -0.06364603677121394, "battery_voltage": 16.795915701973435, "battery_current": 20.204029760773093, "battery_remaining_percent": 99.82000000000001, "gps_fix_type": 6, "gps_satellites_visible": 18}
{"timestamp": 1764248442, "flight_mode": "TAKEOFF", "armed": true, "latitude": 55.75580056826982, "longitude": 37.61760091548073, "altitude_relative": 3.816491992833293, "heading": 0, "speed": 0.1027332556890761, "roll": -0.18477555100713822, "pitch": -0.2508242955468769, "battery_voltage": 16.7950094222306, "battery_current": 20.24753880353412, "battery_remaining_percent": 99.81000000000002, "gps_fix_type": 6, "gps_satellites_visible": 18}
{"timestamp": 1764248442, "flight_mode": "TAKEOFF", "armed": true, "latitude": 55.75580056826982, "longitude": 37.61760091548073, "altitude_relative": 3.816491992833293, "heading": 0, "speed": 0.1027332556890761, "roll": -0.18477555100713822, "pitch": -0.2508242955468769, "battery_voltage": 16.7950094222306, "battery_current": 20.24753880353412, "battery_remaining_percent": 99.81000000000002, "gps_fix_type": 6, "gps_satellites_visible": 18}
{"timestamp": 1764248442.2, "flight_mode": "TAKEOFF", "armed": true, "latitude": 55.755800608102014, "longitude": 37.61760092969315, "altitude_relative": 3.8525454415509026, "heading": 0, "speed": 0.1078699184735299, "roll": -0.2017597564454937, "pitch": -0.28825994730200943, "battery_voltage": 16.79482816628203, "battery_current": 20.256240612086327, "battery_remaining_percent": 99.80800000000002, "gps_fix_type": 6, "gps_satellites_visible": 18}
{"timestamp": 1764248442.4, "flight_mode": "TAKEOFF", "armed": true, "latitude": 55.755800647934215, "longitude": 37.61760094390556, "altitude_relative": 3.8885988902685127, "heading": 0, "speed": 0.11300658125798371, "roll": -0.2187439618838492, "pitch": -0.325695599057142, "battery_voltage": 16.794646910333466, "battery_current": 20.26494242063853, "battery_remaining_percent": 99.80600000000001, "gps_fix_type": 6, "gps_satellites_visible": 18}
{"timestamp": 1764248442.6, "flight_mode": "TAKEOFF", "armed": true, "latitude": 55.75580068776641, "longitude": 37.617600958117976, "altitude_relative": 3.9246523389861223, "heading": 0, "speed": 0.1181432440424375, "roll": -0.2357281673222047, "pitch": -0.36313125081227454, "battery_voltage": 16.794465654384897, "battery_current": 20.273644229190737, "battery_remaining_percent": 99.80400000000002, "gps_fix_type": 6, "gps_satellites_visible": 18}
{"timestamp": 1764248442.8, "flight_mode": "TAKEOFF", "armed": true, "latitude": 55.75580072759861, "longitude": 37.617600972330386, "altitude_relative": 3.9607057877037324, "heading": 0, "speed": 0.12327990682689131, "roll": -0.2527123727605602, "pitch": -0.4005669025674071, "battery_voltage": 16.794284398436332, "battery_current": 20.28234603774294, "battery_remaining_percent": 99.802, "gps_fix_type": 6, "gps_satellites_visible": 18}
{"timestamp": 1764248443, "flight_mode": "TAKEOFF", "armed": true, "latitude": 55.755800767430806, "longitude": 37.617600986542804, "altitude_relative": 3.996759236421342, "heading": 0, "speed": 0.12841656961134512, "roll": -0.2696965781989157, "pitch": -0.43800255432253965, "battery_voltage": 16.794103142487764, "battery_current": 20.291047846295147, "battery_remaining_percent": 99.80000000000001, "gps_fix_type": 6, "gps_satellites_visible": 18}
{"timestamp": 1764248443, "flight_mode": "TAKEOFF", "armed": true, "latitude": 55.755800767430806, "longitude": 37.617600986542804, "altitude_relative": 3.996759236421342, "heading": 0, "speed": 0.12841656961134512, "roll": -0.2696965781989157, "pitch": -0.43800255432253965, "battery_voltage": 16.794103142487764, "battery_current": 20.291047846295147, "battery_remaining_percent": 99.80000000000001, "gps_fix_type": 6, "gps_satellites_visible": 18}
{"timestamp": 1764248443, "flight_mode": "TAKEOFF", "armed": true, "latitude": 55.755800420885336, "longitude": 37.61760098110179, "altitude_relative": 4.21657829288273, "heading": 0, "speed": 0.14033079840000207, "roll": -0.26055614353298445, "pitch": -0.29132639863359555, "battery_voltage": 16.793852910775875, "battery_current": 20.204221075823956, "battery_remaining_percent": 99.79, "gps_fix_type": 6, "gps_satellites_visible": 18}
{"timestamp": 1764248443, "flight_mode": "TAKEOFF", "armed": true, "latitude": 55.755800420885336, "longitude": 37.61760098110179, "altitude_relative": 4.21657829288273, "heading": 0, "speed": 0.14033079840000207, "roll": -0.26055614353298445, "pitch": -0.29132639863359555, "battery_voltage": 16.793852910775875, "battery_current": 20.204221075823956, "battery_remaining_percent": 99.79, "gps_fix_type": 6, "gps_satellites_visible": 18}
{"timestamp": 1764248443, "flight_mode": "TAKEOFF", "armed": true, "latitude": 55.75580007433987, "longitude": 37.61760097566077, "altitude_relative": 4.436397349344118, "heading": 0, "speed": 0.15224502718865898, "roll": -0.2514157088670532, "pitch": -0.1446502429446515, "battery_voltage": 16.793602679063987, "battery_current": 20.117394305352768, "battery_remaining_percent": 99.78000000000002, "gps_fix_type": 6, "gps_satellites_visible": 18}
{"timestamp": 1764248443, "flight_mode": "TAKEOFF", "armed": true, "latitude": 55.75580007433987, "longitude": 37.61760097566077, "altitude_relative": 4.436397349344118, "heading": 0, "speed": 0.15224502718865898, "roll": -0.2514157088670532, "pitch": -0.1446502429446515, "battery_voltage": 16.793602679063987, "battery_current": 20.117394305352768, "battery_remaining_percent": 99.78000000000002, "gps_fix_type": 6, "gps_satellites_visible": 18}
{"timestamp": 1764248443, "flight_mode": "TAKEOFF", "armed": true, "latitude": 55.75579972779439, "longitude": 37.61760097021976, "altitude_relative": 4.656216405805506, "heading": 0, "speed": 0.16415925597731593, "roll": -0.24227527420112202, "pitch": 0.0020259127442924796, "battery_voltage": 16.793352447352095, "battery_current": 20.030567534881577, "battery_remaining_percent": 99.77000000000001, "gps_fix_type": 6, "gps_satellites_visible": 18}
{"timestamp": 1764248443, "flight_mode": "TAKEOFF", "armed": true, "latitude": 55.75579972779439, "longitude": 37.61760097021976, "altitude_relative": 4.656216405805506, "heading": 0, "speed": 0.16415925597731593, "roll": -0.24227527420112202, "pitch": 0.0020259127442924796, "battery_voltage": 16.793352447352095, "battery_current": 20.030567534881577, "battery_remaining_percent": 99.77000000000001, "gps_fix_type": 6, "gps_satellites_visible": 18}
{"timestamp": 1764248443, "flight_mode": "TAKEOFF", "armed": true, "latitude": 55.75579938124892, "longitude": 37.617600964778745, "altitude_relative": 4.876035462266894, "heading": 0, "speed": 0.17607348476597284, "roll": -0.23313483953519082, "pitch": 0.14870206843323663, "battery_voltage": 16.793102215640207, "battery_current": 19.94374076441039, "battery_remaining_percent": 99.76000000000002, "gps_fix_type": 6, "gps_satellites_visible": 18}
{"timestamp": 1764248443, "flight_mode": "TAKEOFF", "armed": true, "latitude": 55.75579938124892, "longitude": 37.617600964778745, "altitude_relative": 4.876035462266894, "heading": 0, "speed": 0.17607348476597284, "roll": -0.23313483953519082, "pitch": 0.14870206843323663, "battery_voltage": 16.793102215640207, "battery_current": 19.94374076441039, "battery_remaining_percent": 99.76000000000002, "gps_fix_type": 6, "gps_satellites_visible": 18}
{"timestamp": 1764248443.2, "flight_mode": "TAKEOFF", "armed": true, "latitude": 55.755799311939825, "longitude": 37.61760096369054, "altitude_relative": 4.9199992735591715, "heading": 0, "speed": 0.17845633052370424, "roll": -0.23130675260200456, "pitch": 0.17803729957102543, "battery_voltage": 16.79305216929783, "battery_current": 19.92637541031615, "battery_remaining_percent": 99.75800000000002, "gps_fix_type": 6, "gps_satellites_visible": 18}
{"timestamp": 1764248443.4, "flight_mode": "TAKEOFF", "armed": true, "latitude": 55.75579924263073, "longitude": 37.61760096260234, "altitude_relative": 4.963963084851449, "heading": 0, "speed": 0.18083917628143562, "roll": -0.22947866566881833, "pitch": 0.20737253070881423, "battery_voltage": 16.793002122955453, "battery_current": 19.909010056221913, "battery_remaining_percent": 99.75600000000001, "gps_fix_type": 6, "gps_satellites_visible": 18}
{"timestamp": 1764248443.6, "flight_mode": "TAKEOFF", "armed": true, "latitude": 55.75579917332164, "longitude": 37.617600961514135, "altitude_relative": 5.007926896143727, "heading": 0, "speed": 0.18322202203916702, "roll": -0.22765057873563208, "pitch": 0.23670776184660303, "battery_voltage": 16.792952076613073, "battery_current": 19.891644702127675, "battery_remaining_percent": 99.75400000000002, "gps_fix_type": 6, "gps_satellites_visible": 18}
{"timestamp": 1764248443.8, "flight_mode": "TAKEOFF", "armed": true, "latitude": 55.755799104012546, "longitude": 37.61760096042593, "altitude_relative": 5.051890707436004, "heading": 0, "speed": 0.1856048677968984, "roll": -0.22582249180244585, "pitch": 0.2660429929843918, "battery_voltage": 16.792902030270696, "battery_current": 19.874279348033436, "battery_remaining_percent": 99.75200000000001, "gps_fix_type": 6, "gps_satellites_visible": 18}
{"timestamp": 1764248444, "flight_mode": "TAKEOFF", "armed": true, "latitude": 55.75579903470345, "longitude": 37.61760095933773, "altitude_relative": 5.095854518728282, "heading": 0, "speed": 0.1879877135546298, "roll": -0.2239944048692596, "pitch": 0.2953782241221806, "battery_voltage": 16.79285198392832, "battery_current": 19.856913993939198, "battery_remaining_percent": 99.75000000000001, "gps_fix_type": 6, "gps_satellites_visible": 18}
{"timestamp": 1764248444, "flight_mode": "TAKEOFF", "armed": true, "latitude": 55.75579903470345, "longitude": 37.61760095933773, "altitude_relative": 5.095854518728282, "heading": 0, "speed": 0.1879877135546298, "roll": -0.2239944048692596, "pitch": 0.2953782241221806, "battery_voltage": 16.79285198392832, "battery_current": 19.856913993939198, "battery_remaining_percent": 99.75000000000001, "gps_fix_type": 6, "gps_satellites_visible": 18}
{"timestamp": 1764248444, "flight_mode": "TAKEOFF", "armed": true, "latitude": 55.75579929830417, "longitude": 37.617600876728986, "altitude_relative": 5.28185822392479, "heading": 0, "speed": 0.15039017084370382, "roll": -0.10257600580602948, "pitch": 0.2640904886910612, "battery_voltage": 16.79256160411959, "battery_current": 19.85002898652291, "battery_remaining_percent": 99.74000000000001, "gps_fix_type": 6, "gps_satellites_visible": 18}
{"timestamp": 1764248444, "flight_mode": "TAKEOFF", "armed": true, "latitude": 55.75579929830417, "longitude": 37.617600876728986, "altitude_relative": 5.28185822392479, "heading": 0, "speed": 0.15039017084370382, "roll": -0.10257600580602948, "pitch": 0.2640904886910612, "battery_voltage": 16.79256160411959, "battery_current": 19.85002898652291, "battery_remaining_percent": 99.74000000000001, "gps_fix_type": 6, "gps_satellites_visible": 18}
{"timestamp": 1764248444, "flight_mode": "TAKEOFF", "armed": true, "latitude": 55.75579956190489, "longitude": 37.61760079412024, "altitude_relative": 5.4678619291213, "heading": 0, "speed": 0.11279262813277786, "roll": 0.018842393257200635, "pitch": 0.23280275325994187, "battery_voltage": 16.79227122431086, "battery_current": 19.84314397910662, "battery_remaining_percent": 99.73000000000002, "gps_fix_type": 6, "gps_satellites_visible": 18}
{"timestamp": 1764248444, "flight_mode": "TAKEOFF", "armed": true, "latitude": 55.75579956190489, "longitude": 37.61760079412024, "altitude_relative": 5.4678619291213, "heading": 0, "speed": 0.11279262813277786, "roll": 0.018842393257200635, "pitch": 0.23280275325994187, "battery_voltage": 16.79227122431086, "battery_current": 19.84314397910662, "battery_remaining_percent": 99.73000000000002, "gps_fix_type": 6, "gps_satellites_visible": 18}
{"timestamp": 1764248444, "flight_mode": "TAKEOFF", "armed": true, "latitude": 55.7557998255056, "longitude": 37.61760071151151, "altitude_relative": 5.653865634317809, "heading": 0, "speed": 0.07519508542185192, "roll": 0.1402607923204307, "pitch": 0.20151501782882247, "battery_voltage": 16.79198084450213, "battery_current": 19.836258971690334, "battery_remaining_percent": 99.72000000000001, "gps_fix_type": 6, "gps_satellites_visible": 18}
{"timestamp": 1764248444, "flight_mode": "TAKEOFF", "armed": true, "latitude": 55.7557998255056, "longitude": 37.61760071151151, "altitude_relative": 5.653865634317809, "heading": 0, "speed": 0.07519508542185192, "roll": 0.1402607923204307, "pitch": 0.20151501782882247, "battery_voltage": 16.79198084450213, "battery_current": 19.836258971690334, "battery_remaining_percent": 99.72000000000001, "gps_fix_type": 6, "gps_satellites_visible": 18}
{"timestamp": 1764248444, "flight_mode": "TAKEOFF", "armed": true, "latitude": 55.755800089106316, "longitude": 37.617600628902764, "altitude_relative": 5.839869339514318, "heading": 0, "speed": 0.03759754271092594, "roll": 0.26167919138366086, "pitch": 0.1702272823977031, "battery_voltage": 16.7916904646934, "battery_current": 19.829373964274044, "battery_remaining_percent": 99.71000000000002, "gps_fix_type": 6, "gps_satellites_visible": 18}
{"timestamp": 1764248444, "flight_mode": "TAKEOFF", "armed": true, "latitude": 55.755800089106316, "longitude": 37.617600628902764, "altitude_relative": 5.839869339514318, "heading": 0, "speed": 0.03759754271092594, "roll": 0.26167919138366086, "pitch": 0.1702272823977031, "battery_voltage": 16.7916904646934, "battery_current": 19.829373964274044, "battery_remaining_percent": 99.71000000000002, "gps_fix_type": 6, "gps_satellites_visible": 18}
{"timestamp": 1764248444.2, "flight_mode": "TAKEOFF", "armed": true, "latitude": 55.75580014182646, "longitude": 37.61760061238102, "altitude_relative": 5.87707008055362, "heading": 0, "speed": 0.030078034168740754, "roll": 0.28596287119630687, "pitch": 0.16396973531147924, "battery_voltage": 16.791632388731653, "battery_current": 19.827996962790788, "battery_remaining_percent": 99.70800000000003, "gps_fix_type": 6, "gps_satellites_visible": 18}
{"timestamp": 1764248444.4, "flight_mode": "TAKEOFF", "armed": true, "latitude": 55.7558001945466, "longitude": 37.617600595859265, "altitude_relative": 5.914270821592922, "heading": 0, "speed": 0.022558525626555564, "roll": 0.31024655100895293, "pitch": 0.15771218822525535, "battery_voltage": 16.791574312769907, "battery_current": 19.82661996130753, "battery_remaining_percent": 99.70600000000002, "gps_fix_type": 6, "gps_satellites_visible": 18}
{"timestamp": 1764248444.6, "flight_mode": "TAKEOFF", "armed": true, "latitude": 55.75580024726675, "longitude": 37.61760057933752, "altitude_relative": 5.951471562632223, "heading": 0, "speed": 0.015039017084370377, "roll": 0.33453023082159894, "pitch": 0.15145464113903148, "battery_voltage": 16.791516236808164, "battery_current": 19.825242959824273, "battery_remaining_percent": 99.70400000000002, "gps_fix_type": 6, "gps_satellites_visible": 18}
{"timestamp": 1764248444.8, "flight_mode": "TAKEOFF", "armed": true, "latitude": 55.75580029998689, "longitude": 37.61760056281577, "altitude_relative": 5.9886723036715255, "heading": 0, "speed": 0.007519508542185187, "roll": 0.35881391063424495, "pitch": 0.1451970940528076, "battery_voltage": 16.791458160846418, "battery_current": 19.823865958341013, "battery_remaining_percent": 99.70200000000001, "gps_fix_type": 6, "gps_satellites_visible": 18}
{"timestamp": 1764248445, "flight_mode": "TAKEOFF", "armed": true, "latitude": 55.755800352707034, "longitude": 37.61760054629402, "altitude_relative": 6.025873044710827, "heading": 0, "speed": 0, "roll": 0.38309759044689096, "pitch": 0.13893954696658373, "battery_voltage": 16.79140008488467, "battery_current": 19.822488956857757, "battery_remaining_percent": 99.70000000000002, "gps_fix_type": 6, "gps_satellites_visible": 18}
{"timestamp": 1764248445, "flight_mode": "TAKEOFF", "armed": true, "latitude": 55.755800352707034, "longitude": 37.61760054629402, "altitude_relative": 6.025873044710827, "heading": 0, "speed": 0, "roll": 0.38309759044689096, "pitch": 0.13893954696658373, "battery_voltage": 16.79140008488467, "battery_current": 19.822488956857757, "battery_remaining_percent": 99.70000000000002, "gps_fix_type": 6, "gps_satellites_visible": 18}
{"timestamp": 1764248445, "flight_mode": "TAKEOFF", "armed": true, "latitude": 55.755800466963755, "longitude": 37.617600634800326, "altitude_relative": 6.221893874794538, "heading": 0, "speed": 0.0, "roll": 0.2608007168717044, "pitch": 0.09374387115075242, "battery_voltage": 16.792971605123316, "battery_current": 19.9241232381533, "battery_remaining_percent": 99.69000000000001, "gps_fix_type": 6, "gps_satellites_visible": 18}
{"timestamp": 1764248445, "flight_mode": "TAKEOFF", "armed": true, "latitude": 55.755800466963755, "longitude": 37.617600634800326, "altitude_relative": 6.221893874794538, "heading": 0, "speed": 0.0, "roll": 0.2608007168717044, "pitch": 0.09374387115075242, "battery_voltage": 16.792971605123316, "battery_current": 19.9241232381533, "battery_remaining_percent": 99.69000000000001, "gps_fix_type": 6, "gps_satellites_visible": 18}
{"timestamp": 1764248445, "flight_mode": "TAKEOFF", "armed": true, "latitude": 55.75580058122048, "longitude": 37.61760072330662, "altitude_relative": 6.417914704878249, "heading": 0, "speed": 0.0, "roll": 0.13850384329651785, "pitch": 0.04854819533492111, "battery_voltage": 16.794543125361958, "battery_current": 20.02575751944884, "battery_remaining_percent": 99.68000000000002, "gps_fix_type": 6, "gps_satellites_visible": 18}
{"timestamp": 1764248445, "flight_mode": "TAKEOFF", "armed": true, "latitude": 55.75580058122048, "longitude": 37.61760072330662, "altitude_relative": 6.417914704878249, "heading": 0, "speed": 0.0, "roll": 0.13850384329651785, "pitch": 0.04854819533492111, "battery_voltage": 16.794543125361958, "battery_current": 20.02575751944884, "battery_remaining_percent": 99.68000000000002, "gps_fix_type": 6, "gps_satellites_visible": 18}
{"timestamp": 1764248445, "flight_mode": "TAKEOFF", "armed": true, "latitude": 55.755800695477205, "longitude": 37.61760081181293, "altitude_relative": 6.61393553496196, "heading": 0, "speed": 0.0, "roll": 0.016206969721331344, "pitch": 0.003352519519089825, "battery_voltage": 16.796114645600603, "battery_current": 20.12739180074438, "battery_remaining_percent": 99.67000000000002, "gps_fix_type": 6, "gps_satellites_visible": 18}
{"timestamp": 1764248445, "flight_mode": "TAKEOFF", "armed": true, "latitude": 55.755800695477205, "longitude": 37.61760081181293, "altitude_relative": 6.61393553496196, "heading": 0, "speed": 0.0, "roll": 0.016206969721331344, "pitch": 0.003352519519089825, "battery_voltage": 16.796114645600603, "battery_current": 20.12739180074438, "battery_remaining_percent": 99.67000000000002, "gps_fix_type": 6, "gps_satellites_visible": 18}
{"timestamp": 1764248445, "flight_mode": "TAKEOFF", "armed": true, "latitude": 55.75580080973393, "longitude": 37.617600900319225, "altitude_relative": 6.809956365045671, "heading": 0, "speed": 0.0, "roll": -0.10608990385385525, "pitch": -0.04184315629674151, "battery_voltage": 16.797686165839245, "battery_current": 20.229026082039923, "battery_remaining_percent": 99.66000000000003, "gps_fix_type": 6, "gps_satellites_visible": 18}
{"timestamp": 1764248445, "flight_mode": "TAKEOFF", "armed": true, "latitude": 55.75580080973393, "longitude": 37.617600900319225, "altitude_relative": 6.809956365045671, "heading": 0, "speed": 0.0, "roll": -0.10608990385385525, "pitch": -0.04184315629674151, "battery_voltage": 16.797686165839245, "battery_current": 20.229026082039923, "battery_remaining_percent": 99.66000000000003, "gps_fix_type": 6, "gps_satellites_visible": 18}
{"timestamp": 1764248445.2, "flight_mode": "TAKEOFF", "armed": true, "latitude": 55.75580083258527, "longitude": 37.617600918020486, "altitude_relative": 6.849160531062413, "heading": 0, "speed": 0.0, "roll": -0.13054927856889256, "pitch": -0.05088229145990777, "battery_voltage": 16.798000469886976, "battery_current": 20.24935293829903, "battery_remaining_percent": 99.65800000000003, "gps_fix_type": 6, "gps_satellites_visible": 18}
{"timestamp": 1764248445.4, "flight_mode": "TAKEOFF", "armed": true, "latitude": 55.75580085543662, "longitude": 37.61760093572175, "altitude_relative": 6.888364697079155, "heading": 0, "speed": 0.0, "roll": -0.15500865328392988, "pitch": -0.05992142662307402, "battery_voltage": 16.798314773934703, "battery_current": 20.26967979455814, "battery_remaining_percent": 99.65600000000002, "gps_fix_type": 6, "gps_satellites_visible": 18}
{"timestamp": 1764248445.6, "flight_mode": "TAKEOFF", "armed": true, "latitude": 55.75580087828796, "longitude": 37.61760095342301, "altitude_relative": 6.927568863095897, "heading": 0, "speed": 0.0, "roll": -0.17946802799896716, "pitch": -0.06896056178624028, "battery_voltage": 16.798629077982433, "battery_current": 20.290006650817247, "battery_remaining_percent": 99.65400000000002, "gps_fix_type": 6, "gps_satellites_visible": 18}
{"timestamp": 1764248445.8, "flight_mode": "TAKEOFF", "armed": true, "latitude": 55.7558009011393, "longitude": 37.61760097112427, "altitude_relative": 6.966773029112639, "heading": 0, "speed": 0.0, "roll": -0.2039274027140045, "pitch": -0.07799969694940653, "battery_voltage": 16.79894338203016, "battery_current": 20.310333507076358, "battery_remaining_percent": 99.65200000000002, "gps_fix_type": 6, "gps_satellites_visible": 18}
{"timestamp": 1764248446, "flight_mode": "TAKEOFF", "armed": true, "latitude": 55.75580092399065, "longitude": 37.61760098882553, "altitude_relative": 7.005977195129382, "heading": 0, "speed": 0, "roll": -0.2283867774290418, "pitch": -0.0870388321125728, "battery_voltage": 16.79925768607789, "battery_current": 20.330660363335465, "battery_remaining_percent": 99.65000000000002, "gps_fix_type": 6, "gps_satellites_visible": 18}
{"timestamp": 1764248446, "flight_mode": "TAKEOFF", "armed": true, "latitude": 55.75580092399065, "longitude": 37.61760098882553, "altitude_relative": 7.005977195129382, "heading": 0, "speed": 0, "roll": -0.2283867774290418, "pitch": -0.0870388321125728, "battery_voltage": 16.79925768607789, "battery_current": 20.330660363335465, "battery_remaining_percent": 99.65000000000002, "gps_fix_type": 6, "gps_satellites_visible": 18}
{"timestamp": 1764248446, "flight_mode": "TAKEOFF", "armed": true, "latitude": 55.75580069992733, "longitude": 37.61760089940176, "altitude_relative": 7.2199977866344875, "heading": 0, "speed": 0.0, "roll": -0.24321004270060972, "pitch": -0.06239553700772493, "battery_voltage": 16.797927943757344, "battery_current": 20.322233568427052, "battery_remaining_percent": 99.64000000000001, "gps_fix_type": 6, "gps_satellites_visible": 18}
{"timestamp": 1764248446, "flight_mode": "TAKEOFF", "armed": true, "latitude": 55.75580069992733, "longitude": 37.61760089940176, "altitude_relative": 7.2199977866344875, "heading": 0, "speed": 0.0, "roll": -0.24321004270060972, "pitch": -0.06239553700772493, "battery_voltage": 16.797927943757344, "battery_current": 20.322233568427052, "battery_remaining_percent": 99.64000000000001, "gps_fix_type": 6, "gps_satellites_visible": 18}
{"timestamp": 1764248446, "flight_mode": "TAKEOFF", "armed": true, "latitude": 55.75580047586401, "longitude": 37.617600809977986, "altitude_relative": 7.434018378139593, "heading": 0, "speed": 0.0, "roll": -0.25803330797217766, "pitch": -0.03775224190287707, "battery_voltage": 16.796598201436797, "battery_current": 20.31380677351864, "battery_remaining_percent": 99.63000000000002, "gps_fix_type": 6, "gps_satellites_visible": 18}
{"timestamp": 1764248446, "flight_mode": "TAKEOFF", "armed": true, "latitude": 55.75580047586401, "longitude": 37.617600809977986, "altitude_relative": 7.434018378139593, "heading": 0, "speed": 0.0, "roll": -0.25803330797217766, "pitch": -0.03775224190287707, "battery_voltage": 16.796598201436797, "battery_current": 20.31380677351864, "battery_remaining_percent": 99.63000000000002, "gps_fix_type": 6, "gps_satellites_visible": 18}
{"timestamp": 1764248446, "flight_mode": "TAKEOFF", "armed": true, "latitude": 55.75580025180069, "longitude": 37.61760072055422, "altitude_relative": 7.6480389696447, "heading": 0, "speed": 0.0, "roll": -0.2728565732437456, "pitch": -0.013108946798029208, "battery_voltage": 16.795268459116247, "battery_current": 20.30537997861023, "battery_remaining_percent": 99.62000000000002, "gps_fix_type": 6, "gps_satellites_visible": 18}
{"timestamp": 1764248446, "flight_mode": "TAKEOFF", "armed": true, "latitude": 55.75580025180069, "longitude": 37.61760072055422, "altitude_relative": 7.6480389696447, "heading": 0, "speed": 0.0, "roll": -0.2728565732437456, "pitch": -0.013108946798029208, "battery_voltage": 16.795268459116247, "battery_current": 20.30537997861023, "battery_remaining_percent": 99.62000000000002, "gps_fix_type": 6, "gps_satellites_visible": 18}
{"timestamp": 1764248446, "flight_mode": "TAKEOFF", "armed": true, "latitude": 55.75580002773737, "longitude": 37.61760063113045, "altitude_relative": 7.862059561149806, "heading": 0, "speed": 0.0, "roll": -0.28767983851531354, "pitch": 0.011534348306818654, "battery_voltage": 16.7939387167957, "battery_current": 20.296953183701817, "battery_remaining_percent": 99.61000000000003, "gps_fix_type": 6, "gps_satellites_visible": 18}
{"timestamp": 1764248446, "flight_mode": "TAKEOFF", "armed": true, "latitude": 55.75580002773737, "longitude": 37.61760063113045, "altitude_relative": 7.862059561149806, "heading": 0, "speed": 0.0, "roll": -0.28767983851531354, "pitch": 0.011534348306818654, "battery_voltage": 16.7939387167957, "battery_current": 20.296953183701817, "battery_remaining_percent": 99.61000000000003, "gps_fix_type": 6, "gps_satellites_visible": 18}
{"timestamp": 1764248446.2, "flight_mode": "TAKEOFF", "armed": true, "latitude": 55.75579998292471, "longitude": 37.6176006132457, "altitude_relative": 7.904863679450827, "heading": 0, "speed": 0.0, "roll": -0.29064449156962713, "pitch": 0.016463007327788225, "battery_voltage": 16.793672768331593, "battery_current": 20.295267824720135, "battery_remaining_percent": 99.60800000000003, "gps_fix_type": 6, "gps_satellites_visible": 18}
{"timestamp": 1764248446.4, "flight_mode": "TAKEOFF", "armed": true, "latitude": 55.75579993811204, "longitude": 37.61760059536094, "altitude_relative": 7.947667797751849, "heading": 0, "speed": 0.0, "roll": -0.2936091446239407, "pitch": 0.021391666348757797, "battery_voltage": 16.79340681986748, "battery_current": 20.293582465738453, "battery_remaining_percent": 99.60600000000002, "gps_fix_type": 6, "gps_satellites_visible": 18}
{"timestamp": 1764248446.6, "flight_mode": "TAKEOFF", "armed": true, "latitude": 55.75579989329938, "longitude": 37.61760057747619, "altitude_relative": 7.990471916052869, "heading": 0, "speed": 0.0, "roll": -0.2965737976782543, "pitch": 0.026320325369727372, "battery_voltage": 16.793140871403374, "battery_current": 20.291897106756767, "battery_remaining_percent": 99.60400000000003, "gps_fix_type": 6, "gps_satellites_visible": 18}
{"timestamp": 1764248446.8, "flight_mode": "TAKEOFF", "armed": true, "latitude": 55.75579984848672, "longitude": 37.61760055959143, "altitude_relative": 8.033276034353891, "heading": 0, "speed": 0.0, "roll": -0.2995384507325679, "pitch": 0.031248984390696944, "battery_voltage": 16.792874922939262, "battery_current": 20.290211747775086, "battery_remaining_percent": 99.60200000000002, "gps_fix_type": 6, "gps_satellites_visible": 18}
{"timestamp": 1764248447, "flight_mode": "TAKEOFF", "armed": true, "latitude": 55.75579980367405, "longitude": 37.61760054170668, "altitude_relative": 8.076080152654912, "heading": 0, "speed": 0, "roll": -0.3025031037868815, "pitch": 0.036177643411666516, "battery_voltage": 16.792608974475154, "battery_current": 20.288526388793404, "battery_remaining_percent": 99.60000000000002, "gps_fix_type": 6, "gps_satellites_visible": 18}
{"timestamp": 1764248447, "flight_mode": "TAKEOFF", "armed": true, "latitude": 55.75579980367405, "longitude": 37.61760054170668, "altitude_relative": 8.076080152654912, "heading": 0, "speed": 0, "roll": -0.3025031037868815, "pitch": 0.036177643411666516, "battery_voltage": 16.792608974475154, "battery_current": 20.288526388793404, "battery_remaining_percent": 99.60000000000002, "gps_fix_type": 6, "gps_satellites_visible": 18}
{"timestamp": 1764248447, "flight_mode": "TAKEOFF", "armed": true, "latitude": 55.75579985736243, "longitude": 37.61760030822529, "altitude_relative": 8.254657084051082, "heading": 0, "speed": 0.004004706430600369, "roll": -0.3297470909654953, "pitch": 0.1133016500363226, "battery_voltage": 16.793385597126058, "battery_current": 20.213526274988677, "battery_remaining_percent": 99.59000000000002, "gps_fix_type": 6, "gps_satellites_visible": 18}
{"timestamp": 1764248447, "flight_mode": "TAKEOFF", "armed": true, "latitude": 55.75579985736243, "longitude": 37.61760030822529, "altitude_relative": 8.254657084051082, "heading": 0, "speed": 0.004004706430600369, "roll": -0.3297470909654953, "pitch": 0.1133016500363226, "battery_voltage": 16.793385597126058, "battery_current": 20.213526274988677, "battery_remaining_percent": 99.59000000000002, "gps_fix_type": 6, "gps_satellites_visible": 18}
{"timestamp": 1764248447, "flight_mode": "TAKEOFF", "armed": true, "latitude": 55.755799911050815, "longitude": 37.617600074743905, "altitude_relative": 8.433234015447251, "heading": 0, "speed": 0.008009412861200738, "roll": -0.35699107814410913, "pitch": 0.1904256566609787, "battery_voltage": 16.79416221977696, "battery_current": 20.13852616118395, "battery_remaining_percent": 99.58000000000003, "gps_fix_type": 6, "gps_satellites_visible": 18}
{"timestamp": 1764248447, "flight_mode": "TAKEOFF", "armed": true, "latitude": 55.755799911050815, "longitude": 37.617600074743905, "altitude_relative": 8.433234015447251, "heading": 0, "speed": 0.008009412861200738, "roll": -0.35699107814410913, "pitch": 0.1904256566609787, "battery_voltage": 16.79416221977696, "battery_current": 20.13852616118395, "battery_remaining_percent": 99.58000000000003, "gps_fix_type": 6, "gps_satellites_visible": 18}
{"timestamp": 1764248447, "flight_mode": "TAKEOFF", "armed": true, "latitude": 55.7557999647392, "longitude": 37.617599841262525, "altitude_relative": 8.611810946843422, "heading": 0, "speed": 0.012014119291801106, "roll": -0.3842350653227229, "pitch": 0.2675496632856348, "battery_voltage": 16.794938842427868, "battery_current": 20.06352604737922, "battery_remaining_percent": 99.57000000000002, "gps_fix_type": 6, "gps_satellites_visible": 18}
{"timestamp": 1764248447, "flight_mode": "TAKEOFF", "armed": true, "latitude": 55.7557999647392, "longitude": 37.617599841262525, "altitude_relative": 8.611810946843422, "heading": 0, "speed": 0.012014119291801106, "roll": -0.3842350653227229, "pitch": 0.2675496632856348, "battery_voltage": 16.794938842427868, "battery_current": 20.06352604737922, "battery_remaining_percent": 99.57000000000002, "gps_fix_type": 6, "gps_satellites_visible": 18}
{"timestamp": 1764248447, "flight_mode": "TAKEOFF", "armed": true, "latitude": 55.75580001842758, "longitude": 37.61759960778114, "altitude_relative": 8.79038787823959, "heading": 0, "speed": 0.016018825722401476, "roll": -0.4114790525013367, "pitch": 0.34467366991029086, "battery_voltage": 16.79571546507877, "battery_current": 19.988525933574493, "battery_remaining_percent": 99.56000000000003, "gps_fix_type": 6, "gps_satellites_visible": 18}
{"timestamp": 1764248447, "flight_mode": "TAKEOFF", "armed": true, "latitude": 55.75580001842758, "longitude": 37.61759960778114, "altitude_relative": 8.79038787823959, "heading": 0, "speed": 0.016018825722401476, "roll": -0.4114790525013367, "pitch": 0.34467366991029086, "battery_voltage": 16.79571546507877, "battery_current": 19.988525933574493, "battery_remaining_percent": 99.56000000000003, "gps_fix_type": 6, "gps_satellites_visible": 18}
{"timestamp": 1764248447.2, "flight_mode": "TAKEOFF", "armed": true, "latitude": 55.75580002916526, "longitude": 37.61759956108486, "altitude_relative": 8.826103264518824, "heading": 0, "speed": 0.01681976700852155, "roll": -0.41692784993705945, "pitch": 0.3600984712352221, "battery_voltage": 16.79587078960895, "battery_current": 19.97352591081355, "battery_remaining_percent": 99.55800000000004, "gps_fix_type": 6, "gps_satellites_visible": 18}
{"timestamp": 1764248447.4, "flight_mode": "TAKEOFF", "armed": true, "latitude": 55.75580003990293, "longitude": 37.61759951438858, "altitude_relative": 8.861818650798059, "heading": 0, "speed": 0.017620708294641622, "roll": -0.42237664737278224, "pitch": 0.3755232725601533, "battery_voltage": 16.79602611413913, "battery_current": 19.958525888052602, "battery_remaining_percent": 99.55600000000003, "gps_fix_type": 6, "gps_satellites_visible": 18}
{"timestamp": 1764248447.6, "flight_mode": "TAKEOFF", "armed": true, "latitude": 55.75580005064061, "longitude": 37.61759946769231, "altitude_relative": 8.897534037077293, "heading": 0, "speed": 0.018421649580761697, "roll": -0.427825444808505, "pitch": 0.3909480738850845, "battery_voltage": 16.796181438669315, "battery_current": 19.943525865291658, "battery_remaining_percent": 99.55400000000003, "gps_fix_type": 6, "gps_satellites_visible": 18}
{"timestamp": 1764248447.8, "flight_mode": "TAKEOFF", "armed": true, "latitude": 55.75580006137828, "longitude": 37.61759942099603, "altitude_relative": 8.933249423356527, "heading": 0, "speed": 0.019222590866881772, "roll": -0.4332742422442278, "pitch": 0.40637287521001575, "battery_voltage": 16.796336763199495, "battery_current": 19.92852584253071, "battery_remaining_percent": 99.55200000000002, "gps_fix_type": 6, "gps_satellites_visible": 18}
{"timestamp": 1764248448, "flight_mode": "TAKEOFF", "armed": true, "latitude": 55.75580007211596, "longitude": 37.61759937429975, "altitude_relative": 8.96896480963576, "heading": 0, "speed": 0.020023532153001844, "roll": -0.4387230396799505, "pitch": 0.42179767653494693, "battery_voltage": 16.796492087729675, "battery_current": 19.913525819769767, "battery_remaining_percent": 99.55000000000003, "gps_fix_type": 6, "gps_satellites_visible": 18}
{"timestamp": 1764248448, "flight_mode": "TAKEOFF", "armed": true, "latitude": 55.75580007211596, "longitude": 37.61759937429975, "altitude_relative": 8.96896480963576, "heading": 0, "speed": 0.020023532153001844, "roll": -0.4387230396799505, "pitch": 0.42179767653494693, "battery_voltage": 16.796492087729675, "battery_current": 19.913525819769767, "battery_remaining_percent": 99.55000000000003, "gps_fix_type": 6, "gps_satellites_visible": 18}
{"timestamp": 1764248448, "flight_mode": "TAKEOFF", "armed": true, "latitude": 55.75580009409107, "longitude": 37.61759951382796, "altitude_relative": 9.190875536623142, "heading": 0, "speed": 0.016018825722401476, "roll": -0.3636476062263809, "pitch": 0.24809233370832395, "battery_voltage": 16.795464746193822, "battery_current": 19.840425288419805, "battery_remaining_percent": 99.54000000000002, "gps_fix_type": 6, "gps_satellites_visible": 18}
{"timestamp": 1764248448, "flight_mode": "TAKEOFF", "armed": true, "latitude": 55.75580009409107, "longitude": 37.61759951382796, "altitude_relative": 9.190875536623142, "heading": 0, "speed": 0.016018825722401476, "roll": -0.3636476062263809, "pitch": 0.24809233370832395, "battery_voltage": 16.795464746193822, "battery_current": 19.840425288419805, "battery_remaining_percent": 99.54000000000002, "gps_fix_type": 6, "gps_satellites_visible": 18}
{"timestamp": 1764248448, "flight_mode": "TAKEOFF", "armed": true, "latitude": 55.75580011606618, "longitude": 37.61759965335617, "altitude_relative": 9.412786263610526, "heading": 0, "speed": 0.012014119291801106, "roll": -0.28857217277281133, "pitch": 0.07438699088170098, "battery_voltage": 16.79443740465797, "battery_current": 19.767324757069844, "battery_remaining_percent": 99.53000000000003, "gps_fix_type": 6, "gps_satellites_visible": 18}
{"timestamp": 1764248448, "flight_mode": "TAKEOFF", "armed": true, "latitude": 55.75580011606618, "longitude": 37.61759965335617, "altitude_relative": 9.412786263610526, "heading": 0, "speed": 0.012014119291801106, "roll": -0.28857217277281133, "pitch": 0.07438699088170098, "battery_voltage": 16.79443740465797, "battery_current": 19.767324757069844, "battery_remaining_percent": 99.53000000000003, "gps_fix_type": 6, "gps_satellites_visible": 18}
{"timestamp": 1764248448, "flight_mode": "TAKEOFF", "armed": true, "latitude": 55.7558001380413, "longitude": 37.617599792884384, "altitude_relative": 9.634696990597908, "heading": 0, "speed": 0.008009412861200738, "roll": -0.21349673931924174, "pitch": -0.099318351944922, "battery_voltage": 16.79341006312212, "battery_current": 19.69422422571988, "battery_remaining_percent": 99.52000000000002, "gps_fix_type": 6, "gps_satellites_visible": 18}
{"timestamp": 1764248448, "flight_mode": "TAKEOFF", "armed": true, "latitude": 55.7558001380413, "longitude": 37.617599792884384, "altitude_relative": 9.634696990597908, "heading": 0, "speed": 0.008009412861200738, "roll": -0.21349673931924174, "pitch": -0.099318351944922, "battery_voltage": 16.79341006312212, "battery_current": 19.69422422571988, "battery_remaining_percent": 99.52000000000002, "gps_fix_type": 6, "gps_satellites_visible": 18}
{"timestamp": 1764248448, "flight_mode": "TAKEOFF", "armed": true, "latitude": 55.75580016001641, "longitude": 37.617599932412595, "altitude_relative": 9.856607717585291, "heading": 0, "speed": 0.004004706430600368, "roll": -0.13842130586567214, "pitch": -0.273023694771545, "battery_voltage": 16.792382721586268, "battery_current": 19.621123694369917, "battery_remaining_percent": 99.51000000000003, "gps_fix_type": 6, "gps_satellites_visible": 18}
{"timestamp": 1764248448, "flight_mode": "TAKEOFF", "armed": true, "latitude": 55.75580016001641, "longitude": 37.617599932412595, "altitude_relative": 9.856607717585291, "heading": 0, "speed": 0.004004706430600368, "roll": -0.13842130586567214, "pitch": -0.273023694771545, "battery_voltage": 16.792382721586268, "battery_current": 19.621123694369917, "battery_remaining_percent": 99.51000000000003, "gps_fix_type": 6, "gps_satellites_visible": 18}
{"timestamp": 1764248448.2, "flight_mode": "TAKEOFF", "armed": true, "latitude": 55.75580016441143, "longitude": 37.61759996031824, "altitude_relative": 9.900989862982767, "heading": 0, "speed": 0.0032037651444802944, "roll": -0.12340621917495823, "pitch": -0.3077647633368696, "battery_voltage": 16.792177253279096, "battery_current": 19.606503588099926, "battery_remaining_percent": 99.50800000000004, "gps_fix_type": 6, "gps_satellites_visible": 18}
{"timestamp": 1764248448.4, "flight_mode": "TAKEOFF", "armed": true, "latitude": 55.75580016880646, "longitude": 37.61759998822388, "altitude_relative": 9.945372008380243, "heading": 0, "speed": 0.0024028238583602207, "roll": -0.1083911324842443, "pitch": -0.3425058319021942, "battery_voltage": 16.791971784971928, "battery_current": 19.59188348182993, "battery_remaining_percent": 99.50600000000003, "gps_fix_type": 6, "gps_satellites_visible": 18}
{"timestamp": 1764248448.6, "flight_mode": "TAKEOFF", "armed": true, "latitude": 55.75580017320148, "longitude": 37.61760001612952, "altitude_relative": 9.98975415377772, "heading": 0, "speed": 0.0016018825722401474, "roll": -0.09337604579353039, "pitch": -0.37724690046751874, "battery_voltage": 16.791766316664756, "battery_current": 19.57726337555994, "battery_remaining_percent": 99.50400000000003, "gps_fix_type": 6, "gps_satellites_visible": 18}
{"timestamp": 1764248448.8, "flight_mode": "TAKEOFF", "armed": true, "latitude": 55.755800177596505, "longitude": 37.617600044035164, "altitude_relative": 10.034136299175197, "heading": 0, "speed": 0.0008009412861200733, "roll": -0.07836095910281646, "pitch": -0.4119879690328434, "battery_voltage": 16.791560848357587, "battery_current": 19.562643269289946, "battery_remaining_percent": 99.50200000000002, "gps_fix_type": 6, "gps_satellites_visible": 18}
{"timestamp": 1764248449, "flight_mode": "TAKEOFF", "armed": true, "latitude": 55.755800181991525, "longitude": 37.61760007194081, "altitude_relative": 10.078518444572673, "heading": 0, "speed": 0, "roll": -0.06334587241210254, "pitch": -0.44672903759816796, "battery_voltage": 16.791355380050415, "battery_current": 19.548023163019955, "battery_remaining_percent": 99.50000000000003, "gps_fix_type": 6, "gps_satellites_visible": 18}
{"timestamp": 1764248449, "flight_mode": "TAKEOFF", "armed": true, "latitude": 55.755800181991525, "longitude": 37.61760007194081, "altitude_relative": 10.078518444572673, "heading": 0, "speed": 0, "roll": -0.06334587241210254, "pitch": -0.44672903759816796, "battery_voltage": 16.791355380050415, "battery_current": 19.548023163019955, "battery_remaining_percent": 99.50000000000003, "gps_fix_type": 6, "gps_satellites_visible": 18}
{"timestamp": 1764248449, "flight_mode": "TAKEOFF", "armed": true, "latitude": 55.755800219763046, "longitude": 37.617600031229884, "altitude_relative": 10.258192400246497, "heading": 0, "speed": 0.019962012240707285, "roll": 0.04570045087092155, "pitch": -0.2810027912012446, "battery_voltage": 16.79165552121651, "battery_current": 19.58073152798749, "battery_remaining_percent": 99.49000000000002, "gps_fix_type": 6, "gps_satellites_visible": 18}
{"timestamp": 1764248449, "flight_mode": "TAKEOFF", "armed": true, "latitude": 55.755800219763046, "longitude": 37.617600031229884, "altitude_relative": 10.258192400246497, "heading": 0, "speed": 0.019962012240707285, "roll": 0.04570045087092155, "pitch": -0.2810027912012446, "battery_voltage": 16.79165552121651, "battery_current": 19.58073152798749, "battery_remaining_percent": 99.49000000000002, "gps_fix_type": 6, "gps_satellites_visible": 18}
{"timestamp": 1764248449, "flight_mode": "TAKEOFF", "armed": true, "latitude": 55.75580025753457, "longitude": 37.61759999051896, "altitude_relative": 10.43786635592032, "heading": 0, "speed": 0.03992402448141457, "roll": 0.15474677415394564, "pitch": -0.1152765448043212, "battery_voltage": 16.791955662382602, "battery_current": 19.61343989295502, "battery_remaining_percent": 99.48000000000003, "gps_fix_type": 6, "gps_satellites_visible": 18}
{"timestamp": 1764248449, "flight_mode": "TAKEOFF", "armed": true, "latitude": 55.75580025753457, "longitude": 37.61759999051896, "altitude_relative": 10.43786635592032, "heading": 0, "speed": 0.03992402448141457, "roll": 0.15474677415394564, "pitch": -0.1152765448043212, "battery_voltage": 16.791955662382602, "battery_current": 19.61343989295502, "battery_remaining_percent": 99.48000000000003, "gps_fix_type": 6, "gps_satellites_visible": 18}
{"timestamp": 1764248449, "flight_mode": "TAKEOFF", "armed": true, "latitude": 55.75580029530609, "longitude": 37.61759994980803, "altitude_relative": 10.617540311594142, "heading": 0, "speed": 0.059886036722121845, "roll": 0.2637930974369697, "pitch": 0.05044970159260215, "battery_voltage": 16.79225580354869, "battery_current": 19.64614825792255, "battery_remaining_percent": 99.47000000000003, "gps_fix_type": 6, "gps_satellites_visible": 18}
{"timestamp": 1764248449, "flight_mode": "TAKEOFF", "armed": true, "latitude": 55.75580029530609, "longitude": 37.61759994980803, "altitude_relative": 10.617540311594142, "heading": 0, "speed": 0.059886036722121845, "roll": 0.2637930974369697, "pitch": 0.05044970159260215, "battery_voltage": 16.79225580354869, "battery_current": 19.64614825792255, "battery_remaining_percent": 99.47000000000003, "gps_fix_type": 6, "gps_satellites_visible": 18}
{"timestamp": 1764248449, "flight_mode": "TAKEOFF", "armed": true, "latitude": 55.75580033307761, "longitude": 37.61759990909711, "altitude_relative": 10.797214267267966, "heading": 0, "speed": 0.07984804896282914, "roll": 0.3728394207199938, "pitch": 0.21617594798952555, "battery_voltage": 16.792555944714785, "battery_current": 19.678856622890084, "battery_remaining_percent": 99.46000000000004, "gps_fix_type": 6, "gps_satellites_visible": 18}
